$GNVTG,155.5,T,,M,000.00,N,000.01,K*7B
$GNGGA,144111.00,5917.28986410,N,01020.34346990,E,4,31,0.6,18.837,M,39.889,M,000.1,2014*6A
$GNGSA,A,3,19,24,12,14,17,23,02,10,15,22,13,,1.21,0.59,1.05,1*01
$GNGSA,A,3,76,66,77,84,75,67,68,85,,,,,1.21,0.59,1.05,2*05
$GNGSA,A,3,27,19,34,04,21,,,,,,,,1.21,0.59,1.05,3*04
$GNGSA,A,3,10,07,25,23,41,32,40,,,,,,1.21,0.59,1.05,4*0E
$GNGSA,A,3,,,,,,,,,,,,,1.21,0.59,1.05,5*0F
$GPGSV,4,1,16,02,12,011,41,10,26,304,46,12,25,220,43,13,22,155,42,1*64
$GPGSV,4,2,16,14,20,060,45,15,42,194,46,17,39,078,45,19,36,114,45,1*63
$GPGSV,4,3,16,21,10,000,39,22,39,065,46,23,22,263,43,24,73,253,50,1*65
$GPGSV,4,4,16,32,05,321,42,36,22,165,42,40,13,131,35,49,23,186,42,1*66
$GPGSV,1,1,01,32,05,321,37,5*51
$GPGSV,2,1,07,10,26,304,44,12,25,220,40,14,20,060,42,15,42,194,43,6*6B
$GPGSV,2,2,07,17,39,078,44,23,22,263,43,24,73,253,49,6*5D
$GPGSV,1,1,01,41,00,105,,0*55
$GLGSV,3,1,11,66,29,195,50,67,58,265,52,68,28,329,48,75,10,068,47,1*7D
$GLGSV,3,2,11,76,68,059,52,77,58,256,43,78,02,250,44,84,15,355,37,1*73
$GLGSV,3,3,11,85,30,055,49,86,13,103,48,,,,49,1*74
$GLGSV,3,1,09,66,29,195,47,67,58,265,49,68,28,329,46,75,10,068,42,3*71
$GLGSV,3,2,09,76,68,059,50,77,58,256,42,84,15,355,37,85,30,055,46,3*7D
$GLGSV,3,3,09,86,13,103,42,3*4B
$GAGSV,2,1,07,04,58,270,52,09,18,315,44,15,13,052,44,19,38,174,46,2*7C
$GAGSV,2,2,07,21,70,098,52,27,21,060,45,34,14,002,43,2*45
$GAGSV,2,1,08,04,58,270,48,09,18,315,42,15,13,052,40,19,38,174,40,7*79
$GAGSV,2,2,08,20,,,33,21,70,098,48,27,21,060,43,34,14,002,40,7*43
$GBGSV,2,1,08,07,26,052,42,10,38,065,43,23,70,237,52,24,02,080,39,1*70
$GBGSV,2,2,08,25,54,090,50,32,42,246,48,40,24,038,44,41,13,195,45,1*7D
$GBGSV,1,1,04,07,26,052,45,10,38,065,47,23,70,237,08,40,24,038,12,B*0C
$GBGSV,2,1,06,05,09,128,,20,28,315,,34,24,099,,37,17,256,,0*78
$GBGSV,2,2,06,44,22,042,,60,01,108,,0*79
$GQGSV,1,1,01,03,08,043,36,1*5D
$GQGSV,1,1,01,03,08,043,41,6*5A
$HEROT,+0.0229,A*39
$GNHDT,196.399,T*26
$GNVTG,144.1,T,,M,000.00,N,000.01,K*7F
$PTMSG,0,,,,1,1,,*6D
$GNGGA,144112.00,5917.28986410,N,01020.34347270,E,4,31,0.6,18.839,M,39.889,M,000.6,2014*64
$GNZDA,144112.00,21,11,2023,00,00*7B
$PTMSX,0,2,3,1,31,31,2221,454325000,0*6C
!AIVDM,1,1,,A,402M3>h000Htt<tSF0l4Q@1P0t2s,0*00
$HEROT,+0.0229,A*39
$GNHDT,196.399,T*26
$GNVTG,144.1,T,,M,000.00,N,000.01,K*7F
$GNGGA,144113.00,5917.28986410,N,01020.34347270,E,4,31,0.6,18.839,M,39.889,M,000.1,2014*62
$GNGSA,A,3,19,24,12,14,17,23,02,10,15,22,13,,1.21,0.59,1.05,1*01
$GNGSA,A,3,76,66,77,84,75,67,68,85,,,,,1.21,0.59,1.05,2*05
$GNGSA,A,3,27,19,34,04,21,,,,,,,,1.21,0.59,1.05,3*04
$GNGSA,A,3,10,07,25,23,41,32,40,,,,,,1.21,0.59,1.05,4*0E
$GNGSA,A,3,,,,,,,,,,,,,1.21,0.59,1.05,5*0F
$GPGSV,4,1,16,02,12,011,42,10,26,304,46,12,25,220,44,13,22,155,42,1*60
$GPGSV,4,2,16,14,20,060,45,15,42,194,46,17,39,078,45,19,36,114,45,1*63
$GPGSV,4,3,16,21,10,000,39,22,39,065,46,23,22,263,43,24,73,253,50,1*65
$GPGSV,4,4,16,32,05,321,42,36,22,165,42,40,13,131,35,49,23,186,42,1*66
$GPGSV,1,1,01,32,05,321,37,5*51
$GPGSV,2,1,07,10,26,304,44,12,25,220,40,14,20,060,42,15,42,194,43,6*6B
$GPGSV,2,2,07,17,39,078,44,23,22,263,43,24,73,253,49,6*5D
$GPGSV,1,1,01,41,00,105,,0*55
$GLGSV,3,1,11,66,29,195,50,67,58,265,52,68,28,329,48,75,10,068,47,1*7D
$GLGSV,3,2,11,76,68,059,52,77,58,256,43,78,02,250,44,84,15,355,37,1*73
$GLGSV,3,3,11,85,30,055,49,86,13,103,48,,,,49,1*74
$GLGSV,3,1,09,66,29,195,47,67,58,265,49,68,28,329,46,75,10,068,42,3*71
$GLGSV,3,2,09,76,68,059,50,77,58,256,42,84,15,355,37,85,30,055,46,3*7D
$GLGSV,3,3,09,86,13,103,42,3*4B
$GAGSV,2,1,07,04,58,270,52,09,18,315,44,15,13,052,44,19,38,174,46,2*7C
$GAGSV,2,2,07,21,70,098,52,27,21,060,45,34,14,002,43,2*45
$GAGSV,2,1,08,04,58,270,48,09,18,315,42,15,13,052,39,19,38,174,41,7*76
$GAGSV,2,2,08,20,,,33,21,70,098,48,27,21,060,43,34,14,002,40,7*43
$GBGSV,2,1,08,07,26,052,42,10,38,065,43,23,70,237,52,24,02,080,39,1*70
$GBGSV,2,2,08,25,54,090,50,32,42,246,48,40,24,038,44,41,13,195,45,1*7D
$GBGSV,1,1,04,07,26,052,45,10,38,065,47,23,70,237,08,40,24,038,11,B*0F
$GBGSV,2,1,06,05,09,128,,20,28,315,,34,24,099,,37,17,256,,0*78
$GBGSV,2,2,06,44,22,042,,60,01,108,,0*79
$GQGSV,1,1,01,03,08,043,37,1*5C
$GQGSV,1,1,01,03,08,043,41,6*5A
$HEROT,+0.0107,A*36
$GNHDT,196.396,T*29
$GNVTG,158.8,T,,M,000.00,N,000.01,K*7B
$PTMSG,0,,,,1,1,,*6D
!AIVDM,1,1,,B,13mJIi0P00Pi9PVQqkr>4?vJ25jT,0*4F
$GNGGA,144113.00,5917.28986440,N,01020.34347270,E,4,31,0.6,18.839,M,39.889,M,000.6,2014*60
$GNZDA,144113.00,21,11,2023,00,00*7A
$PTMSX,0,2,3,1,31,31,2221,454325000,0*6C
$HEROT,+0.0107,A*36
$GNHDT,196.396,T*29
$GNVTG,158.8,T,,M,000.00,N,000.01,K*7B
!AIVDM,1,1,,B,13mLaQ30000hHSHR4W=dP0dL0<1>,0*1D
$GNGGA,144113.00,5917.28986440,N,01020.34347270,E,4,31,0.6,18.839,M,39.889,M,000.1,2014*67
$GNGSA,A,3,19,24,12,14,17,23,02,10,15,22,13,,1.21,0.59,1.05,1*01
$GNGSA,A,3,76,66,77,84,75,67,68,85,,,,,1.21,0.59,1.05,2*05
$GNGSA,A,3,27,19,34,04,21,,,,,,,,1.21,0.59,1.05,3*04
$GNGSA,A,3,10,07,25,23,41,32,40,,,,,,1.21,0.59,1.05,4*0E
$GNGSA,A,3,,,,,,,,,,,,,1.21,0.59,1.05,5*0F
$GPGSV,4,1,16,02,12,011,42,10,26,304,46,12,25,220,44,13,22,155,42,1*60
$GPGSV,4,2,16,14,20,060,44,15,42,194,46,17,39,078,45,19,36,114,45,1*62
$GPGSV,4,3,16,21,10,000,39,22,39,065,46,23,22,263,43,24,73,253,50,1*65
$GPGSV,4,4,16,32,05,321,41,36,22,165,42,40,13,131,35,49,23,186,42,1*65
$GPGSV,1,1,01,32,05,321,37,5*51
$GPGSV,2,1,07,10,26,304,44,12,25,220,41,14,20,060,42,15,42,194,43,6*6A
$GPGSV,2,2,07,17,39,078,44,23,22,263,43,24,73,253,49,6*5D
$GPGSV,1,1,01,41,00,105,,0*55
$GLGSV,3,1,11,66,29,195,50,67,58,265,52,68,28,329,48,75,10,068,46,1*7C
$GLGSV,3,2,11,76,68,059,52,77,58,256,43,78,02,250,44,84,15,355,37,1*73
$GLGSV,3,3,11,85,30,055,49,86,13,103,48,,,,49,1*74
$GLGSV,3,1,09,66,29,195,47,67,58,265,49,68,28,329,46,75,10,068,42,3*71
$GLGSV,3,2,09,76,68,059,50,77,58,256,42,84,15,355,38,85,30,055,46,3*72
$GLGSV,3,3,09,86,13,103,42,3*4B
$GAGSV,2,1,07,04,58,270,52,09,18,315,44,15,13,052,44,19,38,174,46,2*7C
$GAGSV,2,2,07,21,70,098,52,27,21,060,45,34,14,002,43,2*45
$GAGSV,2,1,08,04,58,270,48,09,18,315,42,15,13,052,39,19,38,174,41,7*76
$GAGSV,2,2,08,20,,,33,21,70,098,48,27,21,060,43,34,14,002,40,7*43
$GBGSV,2,1,08,07,26,052,42,10,38,065,43,23,70,237,52,24,02,080,39,1*70
$GBGSV,2,2,08,25,54,090,50,32,42,246,48,40,24,038,44,41,13,195,45,1*7D
$GBGSV,1,1,04,07,26,052,45,10,38,065,47,23,70,237,07,40,24,038,09,B*09
$GBGSV,2,1,06,05,09,128,,20,28,315,,34,24,099,,37,17,256,,0*78
$GBGSV,2,2,06,44,22,042,,60,01,108,,0*79
$GQGSV,1,1,01,03,08,043,36,1*5D
$GQGSV,1,1,01,03,08,043,41,6*5A
$HEROT,+0.0365,A*30
$GNHDT,196.396,T*29
$GNVTG,158.8,T,,M,000.00,N,000.01,K*7B
$PTMSG,0,,,,1,1,,*6D
$GNGGA,144114.00,5917.28986480,N,01020.34347060,E,4,31,0.6,18.832,M,39.889,M,000.6,2014*63
$GNZDA,144114.00,21,11,2023,00,00*7D
$PTMSX,0,2,3,1,31,31,2221,454325000,0*6C
!AIVDM,1,1,,B,402M3>h000Htt<tSF0l4Q@1P0t2s,0*03
!AIVDM,1,1,,B,13oHa4001r0hA4>QwFUlESLF0<1I,0*34
$HEROT,+0.0365,A*30
$GNHDT,196.396,T*29
$GNVTG,158.8,T,,M,000.00,N,000.01,K*7B
$GNGGA,144115.00,5917.28986480,N,01020.34347060,E,4,31,0.6,18.832,M,39.889,M,000.1,2014*65
$GNGSA,A,3,19,24,12,14,17,23,02,10,15,22,13,,1.21,0.59,1.05,1*01
$GNGSA,A,3,76,66,77,84,75,67,68,85,,,,,1.21,0.59,1.05,2*05
$GNGSA,A,3,27,19,34,04,21,,,,,,,,1.21,0.59,1.05,3*04
$GNGSA,A,3,10,07,25,23,41,32,40,,,,,,1.21,0.59,1.05,4*0E
$GNGSA,A,3,,,,,,,,,,,,,1.21,0.59,1.05,5*0F
$GPGSV,4,1,16,02,12,011,42,10,26,304,46,12,25,220,44,13,22,155,42,1*60
$GPGSV,4,2,16,14,20,060,44,15,42,194,46,17,39,078,45,19,36,114,45,1*62
$GPGSV,4,3,16,21,10,000,39,22,39,065,46,23,22,263,43,24,73,253,50,1*65
$GPGSV,4,4,16,32,05,321,42,36,22,165,42,40,13,131,35,49,23,186,42,1*66
$GPGSV,1,1,01,32,05,321,37,5*51
$GPGSV,2,1,07,10,26,304,44,12,25,220,40,14,20,060,42,15,42,194,43,6*6B
$GPGSV,2,2,07,17,39,078,44,23,22,263,43,24,73,253,49,6*5D
$GPGSV,1,1,01,41,00,105,,0*55
$GLGSV,3,1,11,66,29,195,50,67,58,265,52,68,28,329,48,75,10,068,46,1*7C
$GLGSV,3,2,11,76,68,059,52,77,58,256,43,78,02,250,44,84,15,355,36,1*72
$GLGSV,3,3,11,85,30,055,49,86,13,103,48,,,,49,1*74
$GLGSV,3,1,09,66,29,195,47,67,58,265,49,68,28,329,46,75,10,068,42,3*71
$GLGSV,3,2,09,76,68,059,50,77,58,256,42,84,15,355,38,85,30,055,46,3*72
$GLGSV,3,3,09,86,13,103,42,3*4B
$GAGSV,2,1,07,04,58,270,52,09,18,315,44,15,13,052,44,19,38,174,46,2*7C
$GAGSV,2,2,07,21,70,098,52,27,21,060,45,34,14,002,43,2*45
$GAGSV,2,1,08,04,58,270,48,09,18,315,42,15,13,052,39,19,38,174,41,7*76
$GAGSV,2,2,08,20,,,33,21,70,098,48,27,21,060,43,34,14,002,40,7*43
$GBGSV,2,1,08,07,26,052,42,10,38,065,43,23,70,237,52,24,02,080,39,1*70
$GBGSV,2,2,08,25,54,090,50,32,42,246,48,40,24,038,44,41,13,195,45,1*7D
$GBGSV,1,1,04,07,26,052,45,10,38,065,47,23,70,237,06,40,24,038,08,B*09
$GBGSV,2,1,06,05,09,128,,20,28,315,,34,24,099,,37,17,256,,0*78
$GBGSV,2,2,06,44,22,042,,60,01,108,,0*79
$GQGSV,1,1,01,03,08,043,37,1*5C
$GQGSV,1,1,01,03,08,043,41,6*5A
!AIVDM,1,1,,A,13mRJb02R>0fs?4Qje9e`brL0<0W,0*26
$HEROT,+0.0063,A*35
$GNHDT,196.396,T*29
$GNVTG,178.4,T,,M,000.00,N,000.01,K*75
$PTMSG,0,,,,1,1,,*6D
$GNGGA,144115.00,5917.28986670,N,01020.34346850,E,4,31,0.6,18.833,M,39.889,M,000.6,2014*64
$GNZDA,144115.00,21,11,2023,00,00*7C
$PTMSX,0,2,3,1,31,31,2221,454325000,0*6C
$HEROT,+0.0063,A*35
$GNHDT,196.396,T*29
$GNVTG,178.4,T,,M,000.00,N,000.01,K*75
$GNGGA,144115.00,5917.28986670,N,01020.34346850,E,4,31,0.6,18.833,M,39.889,M,000.1,2014*63
$GNGSA,A,3,19,24,12,14,17,23,02,10,15,22,13,,1.21,0.59,1.05,1*01
$GNGSA,A,3,76,66,77,84,75,67,68,85,,,,,1.21,0.59,1.05,2*05
$GNGSA,A,3,27,19,34,04,21,,,,,,,,1.21,0.59,1.05,3*04
$GNGSA,A,3,10,07,25,23,41,32,40,,,,,,1.21,0.59,1.05,4*0E
$GNGSA,A,3,,,,,,,,,,,,,1.21,0.59,1.05,5*0F
$GPGSV,4,1,16,02,12,011,42,10,26,304,46,12,25,220,44,13,22,155,42,1*60
$GPGSV,4,2,16,14,20,060,44,15,42,194,46,17,39,078,45,19,36,114,45,1*62
$GPGSV,4,3,16,21,10,000,39,22,39,065,46,23,22,263,43,24,73,253,50,1*65
$GPGSV,4,4,16,32,05,321,41,36,22,165,42,40,13,131,35,49,23,186,42,1*65
$GPGSV,1,1,01,32,05,321,37,5*51
$GPGSV,2,1,07,10,26,304,44,12,25,220,41,14,20,060,42,15,42,194,43,6*6A
$GPGSV,2,2,07,17,39,078,44,23,22,263,43,24,73,253,49,6*5D
$GPGSV,1,1,01,41,00,105,,0*55
$GLGSV,3,1,11,66,29,195,50,67,58,265,52,68,28,329,48,75,10,068,46,1*7C
$GLGSV,3,2,11,76,68,059,52,77,58,256,43,78,02,250,44,84,15,355,36,1*72
$GLGSV,3,3,11,85,30,055,49,86,13,103,48,,,,49,1*74
$GLGSV,3,1,09,66,29,195,47,67,58,265,49,68,28,329,46,75,10,068,43,3*70
$GLGSV,3,2,09,76,68,059,50,77,58,256,42,84,15,355,38,85,30,055,46,3*72
$GLGSV,3,3,09,86,13,103,42,3*4B
$GAGSV,2,1,07,04,58,270,52,09,18,315,44,15,13,052,44,19,38,174,46,2*7C
$GAGSV,2,2,07,21,70,098,52,27,21,060,45,34,14,002,43,2*45
$GAGSV,2,1,08,04,58,270,48,09,18,315,42,15,13,052,39,19,38,174,41,7*76
$GAGSV,2,2,08,20,,,33,21,70,098,48,27,21,060,43,34,14,002,40,7*43
$GBGSV,2,1,08,07,26,052,42,10,38,065,43,23,70,237,52,24,02,080,39,1*70
$GBGSV,2,2,08,25,54,090,50,32,42,246,48,40,24,038,45,41,13,195,45,1*7C
$GBGSV,1,1,04,07,26,052,45,10,38,065,47,23,70,237,07,40,24,038,07,B*07
$GBGSV,2,1,06,05,09,128,,20,28,315,,34,24,099,,37,17,256,,0*78
$GBGSV,2,2,06,44,22,042,,60,01,108,,0*79
$GQGSV,1,1,01,03,08,043,37,1*5C
$GQGSV,1,1,01,03,08,043,41,6*5A
$HEROT,+0.0103,A*32
$GNHDT,196.397,T*28
$GNVTG,201.3,T,,M,000.00,N,000.01,K*7F
$PTMSG,0,,,,1,1,,*6D
$GNGGA,144116.00,5917.28986760,N,01020.34346860,E,4,31,0.6,18.841,M,39.889,M,000.6,2014*61
$GNZDA,144116.00,21,11,2023,00,00*7F
$PTMSX,0,2,3,1,31,31,2221,454325000,0*6C
!AIVDM,1,1,,A,402M3>h000Htt<tSF0l4Q@1P0t2s,0*00
$HEROT,+0.0103,A*32
!AIVDM,1,1,,A,13m9Vi0000Pgeb8Qr:@L@@4R0<0`,0*68
$GNHDT,196.397,T*28
$GNVTG,201.3,T,,M,000.00,N,000.01,K*7F
$GNGGA,144117.00,5917.28986760,N,01020.34346860,E,4,31,0.6,18.841,M,39.889,M,000.1,2014*67
$GNGSA,A,3,19,24,12,14,17,23,02,10,15,22,13,,1.21,0.59,1.05,1*01
$GNGSA,A,3,76,66,77,84,75,67,68,85,,,,,1.21,0.59,1.05,2*05
$GNGSA,A,3,27,19,34,04,21,,,,,,,,1.21,0.59,1.05,3*04
$GNGSA,A,3,10,07,25,23,41,32,40,,,,,,1.21,0.59,1.05,4*0E
$GNGSA,A,3,,,,,,,,,,,,,1.21,0.59,1.05,5*0F
$GPGSV,4,1,16,02,12,011,42,10,26,304,46,12,25,220,44,13,22,155,42,1*60
$GPGSV,4,2,16,14,20,060,44,15,42,194,46,17,39,078,45,19,36,114,45,1*62
$GPGSV,4,3,16,21,10,000,39,22,39,065,46,23,22,263,43,24,73,253,50,1*65
$GPGSV,4,4,16,32,05,321,42,36,22,165,42,40,13,131,35,49,23,186,42,1*66
$GPGSV,1,1,01,32,05,321,37,5*51
$GPGSV,2,1,07,10,26,304,44,12,25,220,41,14,20,060,42,15,42,194,43,6*6A
$GPGSV,2,2,07,17,39,078,44,23,22,263,43,24,73,253,49,6*5D
$GPGSV,1,1,01,41,00,105,,0*55
$GLGSV,3,1,11,66,29,195,50,67,58,265,52,68,28,329,48,75,10,068,46,1*7C
$GLGSV,3,2,11,76,68,059,52,77,58,256,43,78,02,250,44,84,15,355,36,1*72
$GLGSV,3,3,11,85,30,055,49,86,13,103,48,,,,49,1*74
$GLGSV,3,1,09,66,29,195,47,67,58,265,49,68,28,329,46,75,10,068,43,3*70
$GLGSV,3,2,09,76,68,059,50,77,58,256,42,84,15,355,37,85,30,055,46,3*7D
$GLGSV,3,3,09,86,13,103,41,3*48
$GAGSV,2,1,07,04,58,270,52,09,18,315,44,15,13,052,44,19,38,174,46,2*7C
$GAGSV,2,2,07,21,70,098,52,27,21,060,45,34,14,002,43,2*45
$GAGSV,2,1,08,04,58,270,48,09,18,315,42,15,13,052,39,19,38,174,41,7*76
$GAGSV,2,2,08,20,,,33,21,70,098,48,27,21,060,43,34,14,002,40,7*43
$GBGSV,2,1,08,07,26,052,42,10,38,065,43,23,70,237,52,24,02,080,39,1*70
$GBGSV,2,2,08,25,54,090,50,32,42,246,48,40,24,038,45,41,13,195,45,1*7C
$GBGSV,1,1,04,07,26,052,45,10,38,065,47,23,70,237,07,40,24,038,07,B*07
$GBGSV,2,1,06,05,09,128,,20,28,315,,34,24,099,,37,17,256,,0*78
$GBGSV,2,2,06,44,22,042,,60,01,108,,0*79
$GQGSV,1,1,01,03,08,043,37,1*5C
$GQGSV,1,1,01,03,08,043,41,6*5A
$HEROT,-0.0357,A*37
$GNHDT,196.397,T*28
$GNVTG,206.1,T,,M,000.00,N,000.01,K*7A
$PTMSG,0,,,,1,1,,*6D
$GNGGA,144117.00,5917.28986620,N,01020.34346990,E,4,31,0.6,18.844,M,39.889,M,000.6,2014*6E
$GNZDA,144117.00,21,11,2023,00,00*7E
!AIVDM,1,1,,B,13m`1@0P1DPh3AjQpfI0OgvR0L0I,0*59
$PTMSX,0,2,3,1,31,31,2221,454325000,0*6C
$HEROT,-0.0357,A*37
$GNHDT,196.397,T*28
$GNVTG,206.1,T,,M,000.00,N,000.01,K*7A
$GNGGA,144117.00,5917.28986620,N,01020.34346990,E,4,31,0.6,18.844,M,39.889,M,000.1,2014*69
$GNGSA,A,3,19,24,12,14,17,23,02,10,15,22,13,,1.21,0.59,1.05,1*01
$GNGSA,A,3,76,66,77,84,75,67,68,85,,,,,1.21,0.59,1.05,2*05
$GNGSA,A,3,27,19,34,04,21,,,,,,,,1.21,0.59,1.05,3*04
$GNGSA,A,3,10,07,25,23,41,32,40,,,,,,1.21,0.59,1.05,4*0E
$GNGSA,A,3,,,,,,,,,,,,,1.21,0.59,1.05,5*0F
$GPGSV,4,1,16,02,12,011,42,10,26,304,46,12,25,220,44,13,22,155,42,1*60
$GPGSV,4,2,16,14,20,060,44,15,42,194,46,17,39,078,45,19,36,114,45,1*62
$GPGSV,4,3,16,21,10,000,39,22,39,065,46,23,22,263,43,24,73,253,50,1*65
$GPGSV,4,4,16,32,05,321,42,36,22,165,42,40,13,131,35,49,23,186,42,1*66
$GPGSV,1,1,01,32,05,321,38,5*5E
$GPGSV,2,1,07,10,26,304,44,12,25,220,41,14,20,060,42,15,42,194,43,6*6A
$GPGSV,2,2,07,17,39,078,44,23,22,263,43,24,73,253,49,6*5D
$GPGSV,1,1,01,41,00,105,,0*55
$GLGSV,3,1,11,66,29,195,50,67,58,265,52,68,28,329,48,75,10,068,46,1*7C
$GLGSV,3,2,11,76,68,059,52,77,58,256,43,78,02,250,44,84,15,355,36,1*72
$GLGSV,3,3,11,85,30,055,50,86,13,103,48,,,,49,1*7C
$GLGSV,3,1,09,66,29,195,48,67,58,265,49,68,28,329,46,75,10,068,43,3*7F
$GLGSV,3,2,09,76,68,059,50,77,58,256,42,84,15,355,38,85,30,055,46,3*72
$GLGSV,3,3,09,86,13,103,41,3*48
$GAGSV,2,1,07,04,58,270,52,09,18,315,44,15,13,052,44,19,38,174,46,2*7C
$GAGSV,2,2,07,21,70,098,52,27,21,060,45,34,14,002,43,2*45
$GAGSV,2,1,08,04,58,270,48,09,18,315,41,15,13,052,40,19,38,174,41,7*7B
$GAGSV,2,2,08,20,,,33,21,70,098,48,27,21,060,42,34,14,002,40,7*42
$GBGSV,2,1,08,07,26,052,42,10,38,065,43,23,70,237,52,24,02,080,39,1*70
$GBGSV,2,2,08,25,54,090,50,32,42,246,48,40,24,038,44,41,13,195,45,1*7D
$GBGSV,1,1,03,07,26,052,45,10,38,065,47,40,24,038,07,B*37
$GBGSV,2,1,06,05,09,128,,20,28,315,,34,24,099,,37,17,256,,0*78
!AIVDM,1,1,,B,13m@FJ?P00PgbLfQr=Qf4?vR28:e,0*45
$GBGSV,2,2,06,44,22,042,,60,01,108,,0*79
$GQGSV,1,1,01,03,08,043,37,1*5C
$GQGSV,1,1,01,03,08,043,41,6*5A
$HEROT,-0.0691,A*38
$GNHDT,196.396,T*29
$GNVTG,213.0,T,,M,000.01,N,000.01,K*7E
$PTMSG,0,,,,1,1,,*6D
!AIVDM,1,1,,A,13mqi<00000h19vQwdwLcT`V0@:o,0*16
$GNGGA,144118.00,5917.28986410,N,01020.34346960,E,4,31,0.6,18.841,M,39.889,M,000.6,2014*6A
!AIVDM,1,1,,B,13m=R@0tiu0hbtLQwcR2ij8P0L1@,0*7C
$GNZDA,144118.00,21,11,2023,00,00*71
$PTMSX,0,2,3,1,31,31,2221,454325000,0*6C
!AIVDM,1,1,,B,402M3>h000Htt<tSF0l4Q@1P0t2s,0*03
$HEROT,-0.0691,A*38
$GNHDT,196.396,T*29
$GNVTG,213.0,T,,M,000.01,N,000.01,K*7E
$GNGGA,144118.00,5917.28986410,N,01020.34346960,E,4,31,0.6,18.841,M,39.889,M,000.1,2014*6D
$GNGSA,A,3,19,24,12,14,17,23,02,10,15,22,13,,1.21,0.59,1.05,1*01
$GNGSA,A,3,76,66,77,84,75,67,68,85,,,,,1.21,0.59,1.05,2*05
$GNGSA,A,3,27,19,34,04,21,,,,,,,,1.21,0.59,1.05,3*04
$GNGSA,A,3,10,07,25,23,41,32,40,,,,,,1.21,0.59,1.05,4*0E
$GNGSA,A,3,,,,,,,,,,,,,1.21,0.59,1.05,5*0F
$GPGSV,4,1,16,02,12,011,42,10,26,304,46,12,25,220,44,13,22,155,42,1*60
$GPGSV,4,2,16,14,20,060,44,15,42,194,46,17,39,078,45,19,36,114,45,1*62
$GPGSV,4,3,16,21,10,000,39,22,39,065,46,23,22,263,43,24,73,253,50,1*65
$GPGSV,4,4,16,32,05,321,42,36,22,165,42,40,13,131,35,49,23,186,42,1*66
$GPGSV,1,1,01,32,05,321,37,5*51
$GPGSV,2,1,07,10,26,304,44,12,25,220,40,14,20,060,42,15,42,194,43,6*6B
$GPGSV,2,2,07,17,39,078,44,23,22,263,43,24,73,253,49,6*5D
$GPGSV,1,1,01,41,00,105,,0*55
$GLGSV,3,1,11,66,29,195,50,67,58,265,52,68,28,329,48,75,10,068,46,1*7C
$GLGSV,3,2,11,76,68,059,52,77,58,256,43,78,02,250,44,84,15,355,36,1*72
$GLGSV,3,3,11,85,30,055,49,86,13,103,48,,,,49,1*74
$GLGSV,3,1,09,66,29,195,48,67,58,265,49,68,28,329,46,75,10,068,43,3*7F
$GLGSV,3,2,09,76,68,059,50,77,58,256,42,84,15,355,37,85,30,055,46,3*7D
$GLGSV,3,3,09,86,13,103,41,3*48
$GAGSV,2,1,07,04,58,270,52,09,18,315,44,15,13,052,44,19,38,174,46,2*7C
$GAGSV,2,2,07,21,70,098,52,27,21,060,45,34,14,002,43,2*45
$GAGSV,2,1,08,04,58,270,48,09,18,315,42,15,13,052,40,19,38,174,41,7*78
$GAGSV,2,2,08,20,,,33,21,70,098,48,27,21,060,43,34,14,002,40,7*43
$GBGSV,2,1,08,07,26,052,42,10,38,065,43,23,70,237,52,24,02,080,39,1*70
$GBGSV,2,2,08,25,54,090,50,32,42,246,48,40,24,038,44,41,13,195,45,1*7D
$GBGSV,1,1,02,07,26,052,45,10,38,065,47,B*08
$GBGSV,2,1,06,05,09,128,,20,28,315,,34,24,099,,37,17,256,,0*78
$GBGSV,2,2,06,44,22,042,,60,01,108,,0*79
$GQGSV,1,1,01,03,08,043,36,1*5D
$GQGSV,1,1,01,03,08,043,41,6*5A
$HEROT,-0.0877,A*3E
$GNHDT,196.397,T*28
$GNVTG,219.7,T,,M,000.01,N,000.01,K*73
$PTMSG,0,,,,1,1,,*6D
!AIVDM,1,1,,A,13mLSb00110hIppQw9AMFJd`05jT,0*05
$GNGGA,144119.00,5917.28986330,N,01020.34346890,E,4,31,0.6,18.838,M,39.889,M,000.6,2014*6E
$GNZDA,144119.00,21,11,2023,00,00*70
!AIVDM,1,1,,A,13niQ:001d0hgMLQlbpFkEI20L1J,0*18
$PTMSX,0,2,3,1,31,31,2221,454325000,0*6C
!AIVDM,1,1,,B,13m6@AP000PhhcHQvmDcvlRV05jT,0*2E
$HEROT,-0.0877,A*3E
$GNHDT,196.397,T*28
$GNVTG,219.7,T,,M,000.01,N,000.01,K*73
$GNGGA,144119.00,5917.28986330,N,01020.34346890,E,4,31,0.6,18.838,M,39.889,M,000.1,2014*69
$GNGSA,A,3,19,24,12,14,17,23,02,10,15,22,13,,1.21,0.59,1.05,1*01
$GNGSA,A,3,76,66,77,84,75,67,68,85,,,,,1.21,0.59,1.05,2*05
$GNGSA,A,3,27,19,34,04,21,,,,,,,,1.21,0.59,1.05,3*04
$GNGSA,A,3,10,07,25,23,41,32,40,,,,,,1.21,0.59,1.05,4*0E
$GNGSA,A,3,,,,,,,,,,,,,1.21,0.59,1.05,5*0F
$GPGSV,4,1,16,02,12,011,42,10,26,304,46,12,25,220,44,13,22,155,42,1*60
$GPGSV,4,2,16,14,20,060,44,15,42,194,46,17,39,078,45,19,36,114,45,1*62
$GPGSV,4,3,16,21,10,000,39,22,39,065,46,23,22,263,43,24,73,253,50,1*65
$GPGSV,4,4,16,32,05,321,42,36,22,165,42,40,13,131,35,49,23,186,42,1*66
$GPGSV,1,1,01,32,05,321,38,5*5E
$GPGSV,2,1,07,10,26,304,44,12,25,220,40,14,20,060,42,15,42,194,43,6*6B
$GPGSV,2,2,07,17,39,078,44,23,22,263,43,24,73,253,49,6*5D
$GPGSV,1,1,01,41,00,105,,0*55
$GLGSV,3,1,11,66,29,195,50,67,58,265,52,68,28,329,48,75,10,068,46,1*7C
$GLGSV,3,2,11,76,68,059,52,77,58,256,43,78,02,250,44,84,15,355,36,1*72
$GLGSV,3,3,11,85,30,055,49,86,13,103,48,,,,49,1*74
$GLGSV,3,1,09,66,29,195,48,67,58,265,49,68,28,329,46,75,10,068,44,3*78
$GLGSV,3,2,09,76,68,059,50,77,58,256,42,84,15,355,37,85,30,055,46,3*7D
$GLGSV,3,3,09,86,13,103,41,3*48
$GAGSV,2,1,07,04,58,270,52,09,18,315,44,15,13,052,44,19,38,174,46,2*7C
$GAGSV,2,2,07,21,70,098,52,27,21,060,45,34,14,002,43,2*45
$GAGSV,2,1,08,04,58,270,48,09,18,315,42,15,13,052,40,19,38,174,41,7*78
$GAGSV,2,2,08,20,,,33,21,70,098,48,27,21,060,42,34,14,002,40,7*42
$GBGSV,2,1,08,07,26,052,42,10,38,065,43,23,70,237,52,24,02,080,39,1*70
$GBGSV,2,2,08,25,54,090,50,32,42,246,48,40,24,038,45,41,13,195,45,1*7C
$GBGSV,1,1,02,07,26,052,45,10,38,065,47,B*08
$GBGSV,2,1,06,05,09,128,,20,28,315,,34,24,099,,37,17,256,,0*78
$GBGSV,2,2,06,44,22,042,,60,01,108,,0*79
$GQGSV,1,1,01,03,08,043,37,1*5C
$GQGSV,1,1,01,03,08,043,41,6*5A
$HEROT,-0.0451,A*36
$GNHDT,196.397,T*28
$GNVTG,197.2,T,,M,000.00,N,000.01,K*72
$PTMSG,0,,,,1,1,,*6D
$GNGGA,144120.00,5917.28986310,N,01020.34346970,E,4,31,0.6,18.838,M,39.889,M,000.6,2014*69
$GNZDA,144120.00,21,11,2023,00,00*7A
$PTMSX,0,2,3,1,31,31,2221,454325000,0*6C
!AIVDM,1,1,,A,402M3>h000Htt<tSF0l4Q@1P0t2s,0*00
$HEROT,-0.0451,A*36
$GNHDT,196.397,T*28
$GNVTG,197.2,T,,M,000.00,N,000.01,K*72
$GNGGA,144121.00,5917.28986310,N,01020.34346970,E,4,31,0.6,18.838,M,39.889,M,000.1,2014*6F
$GNGSA,A,3,19,24,12,14,17,23,02,10,15,22,13,,1.21,0.59,1.05,1*01
$GNGSA,A,3,76,66,77,84,75,67,68,85,,,,,1.21,0.59,1.05,2*05
$GNGSA,A,3,27,19,34,04,21,,,,,,,,1.21,0.59,1.05,3*04
$GNGSA,A,3,10,07,25,23,41,32,40,,,,,,1.21,0.59,1.05,4*0E
$GNGSA,A,3,,,,,,,,,,,,,1.21,0.59,1.05,5*0F
$GPGSV,4,1,16,02,12,011,42,10,26,304,46,12,25,220,44,13,22,155,42,1*60
$GPGSV,4,2,16,14,20,060,44,15,42,194,46,17,39,078,45,19,36,114,45,1*62
$GPGSV,4,3,16,21,10,000,39,22,39,065,46,23,22,263,43,24,73,253,50,1*65
$GPGSV,4,4,16,32,05,321,42,36,22,165,42,40,13,131,35,49,23,186,42,1*66
$GPGSV,1,1,01,32,05,321,37,5*51
$GPGSV,2,1,07,10,26,304,44,12,25,220,41,14,20,060,43,15,42,194,43,6*6B
$GPGSV,2,2,07,17,39,078,44,23,22,263,43,24,73,253,49,6*5D
$GPGSV,1,1,01,41,00,105,,0*55
$GLGSV,3,1,11,66,29,195,50,67,58,265,52,68,28,329,48,75,10,068,46,1*7C
$GLGSV,3,2,11,76,68,059,52,77,58,256,43,78,02,250,44,84,15,355,36,1*72
$GLGSV,3,3,11,85,30,055,49,86,13,103,48,,,,49,1*74
$GLGSV,3,1,09,66,29,195,48,67,58,265,49,68,28,329,46,75,10,068,44,3*78
$GLGSV,3,2,09,76,68,059,50,77,58,256,42,84,15,355,37,85,30,055,46,3*7D
$GLGSV,3,3,09,86,13,103,41,3*48
$GAGSV,2,1,07,04,58,270,52,09,18,315,44,15,13,052,44,19,38,174,46,2*7C
$GAGSV,2,2,07,21,70,098,52,27,21,060,45,34,14,002,43,2*45
$GAGSV,2,1,08,04,58,270,48,09,18,315,41,15,13,052,39,19,38,174,41,7*75
$GAGSV,2,2,08,20,,,33,21,70,098,48,27,21,060,42,34,14,002,40,7*42
$GBGSV,2,1,08,07,26,052,42,10,38,065,43,23,70,237,52,24,02,080,39,1*70
$GBGSV,2,2,08,25,54,090,50,32,42,246,47,40,24,038,44,41,13,195,45,1*72
$GBGSV,1,1,02,07,26,052,45,10,38,065,47,B*08
$GBGSV,2,1,06,05,09,128,,20,28,315,,34,24,099,,37,17,256,,0*78
$GBGSV,2,2,06,44,22,042,,60,01,108,,0*79
$GQGSV,1,1,01,03,08,043,36,1*5D
$GQGSV,1,1,01,03,08,043,41,6*5A
$HEROT,-0.0585,A*3E
$GNHDT,196.397,T*28
$GNVTG,170.4,T,,M,000.00,N,000.01,K*7D
$PTMSG,0,,,,1,1,,*6D
$GNGGA,144121.00,5917.28986420,N,01020.34346880,E,4,31,0.6,18.838,M,39.889,M,000.6,2014*62
$GNZDA,144121.00,21,11,2023,00,00*7B
!AIVDM,1,1,,B,13mRJb012<0fs<FQjf2u`bt`0<0`,0*30
$PTMSX,0,2,3,1,31,31,2221,454325000,0*6C
$HEROT,-0.0585,A*3E
!AIVDM,1,1,,B,13mqaH00000hiGNR0EqP2mbd08<p,0*31
$GNHDT,196.397,T*28
$GNVTG,170.4,T,,M,000.00,N,000.01,K*7D
$GNGGA,144121.00,5917.28986420,N,01020.34346880,E,4,31,0.6,18.838,M,39.889,M,000.1,2014*65
$GNGSA,A,3,19,24,12,14,17,23,02,10,15,22,13,,1.21,0.59,1.05,1*01
$GNGSA,A,3,76,66,77,84,75,67,68,85,,,,,1.21,0.59,1.05,2*05
$GNGSA,A,3,27,19,34,04,21,,,,,,,,1.21,0.59,1.05,3*04
$GNGSA,A,3,10,07,25,23,41,32,40,,,,,,1.21,0.59,1.05,4*0E
$GNGSA,A,3,,,,,,,,,,,,,1.21,0.59,1.05,5*0F
$GPGSV,4,1,16,02,12,011,42,10,26,304,46,12,25,220,44,13,22,155,42,1*60
$GPGSV,4,2,16,14,20,060,44,15,42,194,46,17,39,078,46,19,36,114,45,1*61
$GPGSV,4,3,16,21,10,000,39,22,39,065,46,23,22,263,43,24,73,253,50,1*65
$GPGSV,4,4,16,32,05,321,43,36,22,165,42,40,13,131,35,49,23,186,42,1*67
$GPGSV,1,1,01,32,05,321,38,5*5E
$GPGSV,2,1,07,10,26,304,44,12,25,220,40,14,20,060,43,15,42,194,43,6*6A
$GPGSV,2,2,07,17,39,078,44,23,22,263,43,24,73,253,49,6*5D
$GPGSV,1,1,01,41,00,105,,0*55
$GLGSV,3,1,11,66,29,195,50,67,58,265,52,68,28,329,48,75,10,068,45,1*7F
$GLGSV,3,2,11,76,68,059,52,77,58,256,43,78,02,250,44,84,15,355,36,1*72
$GLGSV,3,3,11,85,30,055,50,86,13,103,48,,,,49,1*7C
$GLGSV,3,1,10,66,29,195,48,67,58,265,49,68,28,329,46,75,10,068,44,3*70
$GLGSV,3,2,10,76,68,059,50,77,58,256,42,84,15,355,37,85,30,055,46,3*75
$GLGSV,3,3,10,86,13,103,41,,,,48,3*4C
$GAGSV,2,1,07,04,58,270,52,09,18,315,44,15,13,052,44,19,38,174,46,2*7C
$GAGSV,2,2,07,21,70,098,52,27,21,060,45,34,14,002,43,2*45
$GAGSV,2,1,08,04,58,270,48,09,18,315,41,15,13,052,40,19,38,174,41,7*7B
$GAGSV,2,2,08,20,,,33,21,70,098,48,27,21,060,42,34,14,002,40,7*42
$GBGSV,2,1,08,07,26,052,42,10,38,065,43,23,70,237,52,24,02,080,39,1*70
$GBGSV,2,2,08,25,54,090,50,32,42,246,48,40,24,038,44,41,13,195,45,1*7D
$GBGSV,1,1,02,07,26,052,45,10,38,065,47,B*08
$GBGSV,2,1,06,05,09,128,,20,28,315,,34,24,099,,37,17,256,,0*78
$GBGSV,2,2,06,44,22,042,,60,01,108,,0*79
$GQGSV,1,1,01,03,08,043,37,1*5C
$GQGSV,1,1,01,03,08,043,41,6*5A
$HEROT,-0.0144,A*37
!AIVDM,1,1,,B,H3o1HqTUCBD9qf4<<likn00p322t,0*50
$GNHDT,196.398,T*27
$GNVTG,163.9,T,,M,000.00,N,000.01,K*72
$PTMSG,0,,,,1,1,,*6D
!AIVDM,1,1,,A,H3nwwwTUCBD5>0:<9qpni01H2220,0*49
$GNGGA,144122.00,5917.28986670,N,01020.34346910,E,4,31,0.6,18.842,M,39.889,M,000.6,2014*63
$GNZDA,144122.00,21,11,2023,00,00*78
$PTMSX,0,2,3,1,31,31,2221,454325000,0*6C
!AIVDM,1,1,,B,402M3>h000Htt<tSF0l4Q@1P0t2s,0*03
!AIVDM,1,1,,A,33mJIi0P00Pi9P`Qqku>4?vd20>k,0*3F
$HEROT,-0.0144,A*37
$GNHDT,196.398,T*27
$GNVTG,163.9,T,,M,000.00,N,000.01,K*72
$GNGGA,144123.00,5917.28986670,N,01020.34346910,E,4,31,0.6,18.842,M,39.889,M,000.1,2014*65
$GNGSA,A,3,19,24,12,14,17,23,02,10,15,22,13,,1.21,0.59,1.05,1*01
$GNGSA,A,3,76,66,77,84,75,67,68,85,,,,,1.21,0.59,1.05,2*05
$GNGSA,A,3,27,19,34,04,21,,,,,,,,1.21,0.59,1.05,3*04
$GNGSA,A,3,10,07,25,23,41,32,40,,,,,,1.21,0.59,1.05,4*0E
$GNGSA,A,3,,,,,,,,,,,,,1.21,0.59,1.05,5*0F
$GPGSV,4,1,16,02,12,011,42,10,26,304,45,12,25,220,44,13,22,155,42,1*63
$GPGSV,4,2,16,14,20,060,44,15,42,194,46,17,39,078,46,19,36,114,45,1*61
$GPGSV,4,3,16,21,10,000,39,22,39,065,46,23,22,263,44,24,73,253,50,1*62
$GPGSV,4,4,16,32,05,321,43,36,22,165,42,40,13,131,35,49,23,186,42,1*67
$GPGSV,1,1,01,32,05,321,37,5*51
$GPGSV,2,1,07,10,26,304,44,12,25,220,41,14,20,060,43,15,42,194,43,6*6B
$GPGSV,2,2,07,17,39,078,43,23,22,263,43,24,73,253,49,6*5A
$GPGSV,1,1,01,41,00,105,,0*55
$GLGSV,3,1,11,66,29,195,50,67,58,265,52,68,28,329,48,75,10,068,45,1*7F
$GLGSV,3,2,11,76,68,059,52,77,58,256,43,78,02,250,44,84,15,355,36,1*72
$GLGSV,3,3,11,85,30,055,50,86,13,103,48,,,,49,1*7C
$GLGSV,3,1,10,66,29,195,48,67,58,265,49,68,28,329,46,75,10,068,44,3*70
$GLGSV,3,2,10,76,68,059,50,77,58,256,42,84,15,355,37,85,30,055,46,3*75
$GLGSV,3,3,10,86,13,103,41,,,,47,3*43
$GAGSV,2,1,07,04,58,269,52,09,18,315,44,15,13,052,44,19,38,174,46,2*74
$GAGSV,2,2,07,21,70,098,52,27,21,060,45,34,14,002,43,2*45
$GAGSV,2,1,08,04,58,269,48,09,18,315,42,15,13,052,40,19,38,174,41,7*70
$GAGSV,2,2,08,20,,,34,21,70,098,48,27,21,060,42,34,14,002,40,7*45
$GBGSV,2,1,08,07,26,052,42,10,38,065,43,23,70,237,52,24,02,080,39,1*70
$GBGSV,2,2,08,25,54,090,50,32,42,246,48,40,24,038,45,41,13,195,45,1*7C
$GBGSV,1,1,03,07,26,052,45,10,38,065,47,40,24,038,14,B*35
$GBGSV,2,1,06,05,09,128,,20,28,315,,34,24,099,,37,17,256,,0*78
$GBGSV,2,2,06,44,22,042,,60,01,108,,0*79
$GQGSV,1,1,01,03,08,043,37,1*5C
$GQGSV,1,1,01,03,08,043,41,6*5A
$HEROT,+0.0172,A*34
$GNHDT,196.400,T*21
$GNVTG,144.9,T,,M,000.00,N,000.01,K*77
$PTMSG,0,,,,1,1,,*6D
$GNGGA,144123.00,5917.28986770,N,01020.34347080,E,4,31,0.6,18.843,M,39.889,M,000.6,2014*63
$GNZDA,144123.00,21,11,2023,00,00*79
!AIVDM,1,1,,B,13n;pu;P00Pi9IpQqk<>4?vf2<0n,0*27
$PTMSX,0,2,3,1,31,31,2221,454325000,0*6C
$HEROT,+0.0172,A*34
$GNHDT,196.400,T*21
$GNVTG,144.9,T,,M,000.00,N,000.01,K*77
$GNGGA,144123.00,5917.28986770,N,01020.34347080,E,4,31,0.6,18.843,M,39.889,M,000.1,2014*64
$GNGSA,A,3,19,24,12,14,17,23,02,10,15,22,13,,1.27,0.61,1.11,1*09
$GNGSA,A,3,76,66,77,84,67,68,85,,,,,,1.27,0.61,1.11,2*0F
$GNGSA,A,3,27,19,34,04,21,,,,,,,,1.27,0.61,1.11,3*0C
$GNGSA,A,3,10,07,25,23,41,32,40,,,,,,1.27,0.61,1.11,4*06
$GNGSA,A,3,,,,,,,,,,,,,1.27,0.61,1.11,5*07
$GPGSV,4,1,16,02,12,011,42,10,26,304,45,12,25,220,44,13,22,155,42,1*63
!AIVDM,1,1,,B,33ku9SE000Phj::R0CJCF5pd2Dj:,0*1F
$GPGSV,4,2,16,14,20,060,44,15,42,194,46,17,39,078,46,19,36,114,45,1*61
$GPGSV,4,3,16,21,10,000,39,22,39,065,46,23,22,263,44,24,73,253,50,1*62
$GPGSV,4,4,16,32,05,321,43,36,22,165,42,40,13,131,35,49,23,186,42,1*67
$GPGSV,1,1,01,32,05,321,38,5*5E
$GPGSV,2,1,07,10,26,304,44,12,25,220,40,14,20,060,43,15,42,194,43,6*6A
$GPGSV,2,2,07,17,39,078,43,23,22,263,43,24,73,253,49,6*5A
$GPGSV,1,1,01,41,00,105,,0*55
$GLGSV,3,1,11,66,29,195,50,67,58,265,52,68,28,329,48,75,10,068,44,1*7E
$GLGSV,3,2,11,76,68,059,52,77,58,256,43,78,02,250,44,84,15,355,36,1*72
$GLGSV,3,3,11,85,30,055,50,86,13,103,47,,,,49,1*73
$GLGSV,3,1,10,66,29,195,48,67,58,265,49,68,28,329,46,75,10,068,44,3*70
$GLGSV,3,2,10,76,68,059,50,77,58,256,42,84,15,355,37,85,30,055,46,3*75
$GLGSV,3,3,10,86,13,103,41,,,,48,3*4C
$GAGSV,2,1,07,04,58,269,52,09,18,315,44,15,13,052,44,19,38,174,46,2*74
$GAGSV,2,2,07,21,70,098,52,27,21,060,45,34,14,002,43,2*45
$GAGSV,2,1,08,04,58,269,48,09,18,315,42,15,13,052,40,19,38,174,41,7*70
$GAGSV,2,2,08,20,,,34,21,70,098,48,27,21,060,42,34,14,002,40,7*45
$GBGSV,2,1,08,07,26,052,42,10,38,065,43,23,70,237,52,24,02,080,39,1*70
$GBGSV,2,2,08,25,54,090,50,32,42,246,48,40,24,038,45,41,13,195,45,1*7C
$GBGSV,1,1,03,07,26,052,45,10,38,065,47,40,24,038,11,B*30
$GBGSV,2,1,06,05,09,128,,20,28,315,,34,24,099,,37,17,256,,0*78
$GBGSV,2,2,06,44,22,042,,60,01,108,,0*79
$GQGSV,1,1,01,03,08,043,37,1*5C
$GQGSV,1,1,01,03,08,043,41,6*5A
!AIVDM,1,1,,A,13oHa4001r0hAGHQwF5TH3Lb05jT,0*6C
$HEROT,+0.0006,A*36
$GNHDT,196.397,T*28
$GNVTG,137.6,T,,M,000.00,N,000.01,K*7C
$PTMSG,0,,,,1,1,,*6D
$GNGGA,144124.00,5917.28986630,N,01020.34347170,E,4,30,0.6,18.840,M,39.889,M,000.6,2014*6D
$GNZDA,144124.00,21,11,2023,00,00*7E
$PTMSX,0,2,3,1,30,30,2221,454325000,0*6C
!AIVDM,1,1,,A,402M3>h000Htt<tSF0l4Q@1P0t2t,0*07
$HEROT,+0.0006,A*36
$GNHDT,196.397,T*28
$GNVTG,137.6,T,,M,000.00,N,000.01,K*7C
$GNGGA,144125.00,5917.28986630,N,01020.34347170,E,4,30,0.6,18.840,M,39.889,M,000.1,2014*6B
$GNGSA,A,3,19,24,12,14,17,23,02,10,15,22,13,,1.27,0.61,1.11,1*09
$GNGSA,A,3,76,66,77,84,67,68,85,,,,,,1.27,0.61,1.11,2*0F
$GNGSA,A,3,27,19,34,04,21,,,,,,,,1.27,0.61,1.11,3*0C
$GNGSA,A,3,10,07,25,23,41,32,40,,,,,,1.27,0.61,1.11,4*06
$GNGSA,A,3,,,,,,,,,,,,,1.27,0.61,1.11,5*07
$GPGSV,4,1,16,02,12,011,42,10,26,304,45,12,25,220,44,13,22,155,42,1*63
$GPGSV,4,2,16,14,20,060,44,15,42,194,46,17,39,078,46,19,36,114,45,1*61
$GPGSV,4,3,16,21,10,000,39,22,39,065,46,23,22,263,44,24,73,253,50,1*62
$GPGSV,4,4,16,32,05,321,43,36,22,165,42,40,13,131,35,49,23,186,42,1*67
$GPGSV,1,1,01,32,05,321,38,5*5E
$GPGSV,2,1,07,10,26,304,44,12,25,220,41,14,20,060,43,15,42,194,43,6*6B
$GPGSV,2,2,07,17,39,078,43,23,22,263,43,24,73,253,49,6*5A
$GPGSV,1,1,01,41,00,105,,0*55
$GLGSV,3,1,11,66,29,195,50,67,58,265,52,68,28,329,48,75,10,068,44,1*7E
$GLGSV,3,2,11,76,68,059,52,77,58,256,43,78,02,250,44,84,15,355,36,1*72
$GLGSV,3,3,11,85,30,055,50,86,13,103,47,,,,49,1*73
$GLGSV,3,1,10,66,29,195,48,67,58,265,48,68,28,329,46,75,10,068,44,3*71
$GLGSV,3,2,10,76,68,059,50,77,58,256,42,84,15,355,37,85,30,055,46,3*75
$GLGSV,3,3,10,86,13,103,41,,,,48,3*4C
$GAGSV,2,1,07,04,58,269,52,09,18,315,44,15,13,052,44,19,38,174,46,2*74
$GAGSV,2,2,07,21,70,098,52,27,21,060,45,34,14,002,43,2*45
$GAGSV,2,1,08,04,58,269,48,09,18,315,42,15,13,052,40,19,38,174,41,7*70
$GAGSV,2,2,08,20,,,33,21,70,098,48,27,21,060,42,34,14,002,40,7*42
$GBGSV,2,1,08,07,26,052,42,10,38,065,43,23,70,237,52,24,02,080,39,1*70
$GBGSV,2,2,08,25,54,090,50,32,42,246,48,40,24,038,45,41,13,195,45,1*7C
$GBGSV,1,1,03,07,26,052,45,10,38,065,47,40,24,038,09,B*39
$GBGSV,2,1,06,05,09,128,,20,28,315,,34,24,099,,37,17,256,,0*78
$GBGSV,2,2,06,44,22,042,,60,01,108,,0*79
$GQGSV,1,1,01,03,08,043,37,1*5C
$GQGSV,1,1,01,03,08,043,41,6*5A
$HEROT,-0.0431,A*30
$GNHDT,196.395,T*2A
$GNVTG,135.6,T,,M,000.01,N,000.01,K*7F
$PTMSG,0,,,,1,1,,*6D
$GNGGA,144125.00,5917.28986450,N,01020.34347150,E,4,30,0.6,18.832,M,39.889,M,000.6,2014*6F
$GNZDA,144125.00,21,11,2023,00,00*7F
$PTMSX,0,2,3,1,30,30,2221,454325000,0*6C
$HEROT,-0.0431,A*30
$GNHDT,196.395,T*2A
$GNVTG,135.6,T,,M,000.01,N,000.01,K*7F
$GNGGA,144125.00,5917.28986450,N,01020.34347150,E,4,30,0.6,18.832,M,39.889,M,000.1,2014*68
$GNGSA,A,3,19,24,12,14,17,23,02,10,15,22,13,,1.27,0.61,1.11,1*09
$GNGSA,A,3,76,66,77,84,67,68,85,,,,,,1.27,0.61,1.11,2*0F
$GNGSA,A,3,27,19,34,04,21,,,,,,,,1.27,0.61,1.11,3*0C
$GNGSA,A,3,10,07,25,23,41,32,40,,,,,,1.27,0.61,1.11,4*06
$GNGSA,A,3,,,,,,,,,,,,,1.27,0.61,1.11,5*07
$GPGSV,4,1,16,02,12,011,42,10,26,304,45,12,25,220,44,13,22,155,42,1*63
$GPGSV,4,2,16,14,20,060,44,15,42,194,46,17,39,078,46,19,36,114,45,1*61
$GPGSV,4,3,16,21,10,000,39,22,39,065,46,23,22,263,44,24,73,253,50,1*62
$GPGSV,4,4,16,32,05,321,43,36,22,165,42,40,13,131,35,49,23,186,42,1*67
$GPGSV,1,1,01,32,05,321,38,5*5E
$GPGSV,2,1,07,10,26,304,44,12,25,220,41,14,20,060,43,15,42,194,43,6*6B
$GPGSV,2,2,07,17,39,078,43,23,22,263,43,24,73,253,49,6*5A
$GPGSV,1,1,01,41,00,105,,0*55
$GLGSV,3,1,11,66,29,195,50,67,58,265,52,68,28,329,48,75,10,068,44,1*7E
$GLGSV,3,2,11,76,68,059,52,77,58,256,43,78,02,250,43,84,15,355,36,1*75
$GLGSV,3,3,11,85,30,055,49,86,13,103,47,,,,49,1*7B
$GLGSV,3,1,10,66,29,195,48,67,58,265,48,68,28,329,46,75,10,068,44,3*71
$GLGSV,3,2,10,76,68,059,50,77,58,256,42,84,15,355,37,85,30,055,46,3*75
$GLGSV,3,3,10,86,13,103,41,,,,47,3*43
$GAGSV,2,1,07,04,58,269,52,09,18,315,44,15,13,052,44,19,38,174,46,2*74
$GAGSV,2,2,07,21,70,098,52,27,21,060,45,34,14,002,43,2*45
$GAGSV,2,1,08,04,58,269,48,09,18,315,42,15,13,052,40,19,38,174,41,7*70
$GAGSV,2,2,08,20,,,34,21,70,098,48,27,21,060,42,34,14,002,40,7*45
$GBGSV,2,1,08,07,26,052,42,10,38,065,43,23,70,237,52,24,02,080,38,1*71
$GBGSV,2,2,08,25,54,090,50,32,42,246,48,40,24,038,45,41,13,195,45,1*7C
$GBGSV,1,1,04,07,26,052,45,10,38,065,47,23,70,237,12,40,24,038,11,B*04
$GBGSV,2,1,06,05,09,128,,20,28,315,,34,24,099,,37,17,256,,0*78
$GBGSV,2,2,06,44,22,042,,60,01,108,,0*79
$GQGSV,1,1,01,03,08,043,37,1*5C
$GQGSV,1,1,01,03,08,043,41,6*5A
!AIVDM,1,1,,B,13m9Vi0000Pgeb:Qr:@9>h4n05jT,0*11
$HEROT,-0.0289,A*35
$GNHDT,196.395,T*2A
$GNVTG,154.5,T,,M,000.01,N,000.01,K*7B
$PTMSG,0,,,,1,1,,*6D
$GNGGA,144126.00,5917.28986310,N,01020.34346940,E,4,30,0.6,18.828,M,39.889,M,000.6,2014*6C
$GNZDA,144126.00,21,11,2023,00,00*7C
$PTMSX,0,2,3,1,30,30,2221,454325000,0*6C
!AIVDM,1,1,,B,402M3>h000Htt<tSF0l4Q@1P0t2t,0*04
$HEROT,-0.0289,A*35
$GNHDT,196.395,T*2A
$GNVTG,154.5,T,,M,000.01,N,000.01,K*7B
$GNGGA,144127.00,5917.28986310,N,01020.34346940,E,4,30,0.6,18.828,M,39.889,M,000.1,2014*6A
$GNGSA,A,3,19,24,12,14,17,23,02,10,15,22,13,,1.27,0.61,1.11,1*09
$GNGSA,A,3,76,66,77,84,67,68,85,,,,,,1.27,0.61,1.11,2*0F
$GNGSA,A,3,27,19,34,04,21,,,,,,,,1.27,0.61,1.11,3*0C
$GNGSA,A,3,10,07,25,23,41,32,40,,,,,,1.27,0.61,1.11,4*06
$GNGSA,A,3,,,,,,,,,,,,,1.27,0.61,1.11,5*07
$GPGSV,4,1,16,02,12,011,42,10,26,304,46,12,25,220,44,13,22,155,42,1*60
$GPGSV,4,2,16,14,20,060,44,15,42,194,46,17,39,078,46,19,36,114,45,1*61
$GPGSV,4,3,16,21,10,000,39,22,39,065,46,23,22,263,44,24,73,253,50,1*62
$GPGSV,4,4,16,32,05,321,43,36,22,165,42,40,13,131,35,49,23,186,42,1*67
$GPGSV,1,1,01,32,05,321,38,5*5E
$GPGSV,2,1,07,10,26,304,44,12,25,220,40,14,20,060,42,15,42,194,43,6*6B
$GPGSV,2,2,07,17,39,078,43,23,22,263,43,24,73,253,49,6*5A
$GPGSV,1,1,01,41,00,105,,0*55
$GLGSV,3,1,11,66,29,195,50,67,58,265,52,68,28,329,48,75,10,068,43,1*79
$GLGSV,3,2,11,76,68,059,52,77,58,256,43,78,02,250,43,84,15,355,36,1*75
$GLGSV,3,3,11,85,30,055,50,86,13,103,47,,,,49,1*73
$GLGSV,3,1,10,66,29,195,47,67,58,265,48,68,28,329,47,75,10,068,44,3*7F
$GLGSV,3,2,10,76,68,059,50,77,58,256,42,84,15,355,37,85,30,055,46,3*75
$GLGSV,3,3,10,86,13,103,41,,,,47,3*43
$GAGSV,2,1,07,04,58,269,52,09,19,315,44,15,13,052,44,19,38,174,46,2*75
$GAGSV,2,2,07,21,70,098,52,27,21,060,45,34,14,002,43,2*45
$GAGSV,2,1,08,04,58,269,48,09,19,315,42,15,13,052,40,19,38,174,41,7*71
$GAGSV,2,2,08,20,,,33,21,70,098,48,27,21,060,43,34,14,002,40,7*43
$GBGSV,2,1,08,07,26,052,42,10,38,065,43,23,70,237,52,24,02,080,38,1*71
$GBGSV,2,2,08,25,54,090,50,32,42,246,48,40,24,038,44,41,13,195,45,1*7D
$GBGSV,1,1,04,07,26,052,45,10,38,065,47,23,70,237,11,40,24,038,13,B*05
$GBGSV,2,1,06,05,09,128,,20,28,315,,34,24,099,,37,17,256,,0*78
$GBGSV,2,2,06,44,22,042,,60,01,108,,0*79
$GQGSV,1,1,01,03,08,043,37,1*5C
$GQGSV,1,1,01,03,08,043,41,6*5A
$HEROT,-0.0558,A*3E
$GNHDT,196.396,T*29
$GNVTG,167.5,T,,M,000.00,N,000.01,K*7A
$PTMSG,0,,,,1,1,,*6D
$GNGGA,144127.00,5917.28986340,N,01020.34346980,E,4,30,0.6,18.834,M,39.889,M,000.6,2014*69
$GNZDA,144127.00,21,11,2023,00,00*7D
$PTMSX,0,2,3,1,30,30,2221,454325000,0*6C
$HEROT,-0.0558,A*3E
$GNHDT,196.396,T*29
$GNVTG,167.5,T,,M,000.00,N,000.01,K*7A
$GNGGA,144127.00,5917.28986340,N,01020.34346980,E,4,30,0.6,18.834,M,39.889,M,000.1,2014*6E
$GNGSA,A,3,19,24,12,14,17,23,02,10,15,22,13,,1.27,0.61,1.11,1*09
$GNGSA,A,3,76,66,77,84,67,68,85,,,,,,1.27,0.61,1.11,2*0F
$GNGSA,A,3,27,19,34,04,21,,,,,,,,1.27,0.61,1.11,3*0C
$GNGSA,A,3,10,07,25,23,41,32,40,,,,,,1.27,0.61,1.11,4*06
$GNGSA,A,3,,,,,,,,,,,,,1.27,0.61,1.11,5*07
$GPGSV,4,1,16,02,12,011,41,10,26,304,45,12,25,220,44,13,22,155,42,1*60
$GPGSV,4,2,16,14,20,060,44,15,42,194,46,17,39,078,46,19,36,114,45,1*61
$GPGSV,4,3,16,21,10,000,39,22,39,065,46,23,22,263,44,24,73,253,50,1*62
$GPGSV,4,4,16,32,05,321,43,36,22,165,42,40,13,131,35,49,23,186,42,1*67
$GPGSV,1,1,01,32,05,321,38,5*5E
$GPGSV,2,1,07,10,26,304,44,12,25,220,41,14,20,060,42,15,42,194,43,6*6A
$GPGSV,2,2,07,17,39,078,43,23,22,263,43,24,73,253,49,6*5A
$GPGSV,1,1,01,41,00,105,,0*55
$GLGSV,3,1,11,66,29,195,50,67,58,265,52,68,28,329,48,75,10,068,43,1*79
$GLGSV,3,2,11,76,68,059,52,77,58,256,43,78,02,250,43,84,15,355,36,1*75
$GLGSV,3,3,11,85,30,055,50,86,13,103,47,,,,49,1*73
$GLGSV,3,1,10,66,29,195,47,67,58,265,48,68,28,329,47,75,10,068,44,3*7F
$GLGSV,3,2,10,76,68,059,50,77,58,256,42,84,15,355,37,85,30,055,46,3*75
$GLGSV,3,3,10,86,13,103,41,,,,48,3*4C
$GAGSV,2,1,07,04,58,269,52,09,19,315,44,15,13,052,44,19,38,174,46,2*75
$GAGSV,2,2,07,21,70,098,52,27,21,060,45,34,14,002,43,2*45
$GAGSV,2,1,08,04,58,269,48,09,19,315,42,15,13,052,40,19,38,174,41,7*71
$GAGSV,2,2,08,20,,,33,21,70,098,48,27,21,060,43,34,14,002,40,7*43
$GBGSV,2,1,08,07,26,052,42,10,38,065,43,23,70,237,52,24,02,080,38,1*71
$GBGSV,2,2,08,25,54,090,50,32,42,246,48,40,24,038,45,41,13,195,45,1*7C
$GBGSV,1,1,04,07,26,052,45,10,38,065,47,23,70,237,09,40,24,038,12,B*0D
$GBGSV,2,1,06,05,09,128,,20,28,315,,34,24,099,,37,17,256,,0*78
$GBGSV,2,2,06,44,22,041,,60,01,108,,0*7A
$GQGSV,1,1,01,03,08,043,36,1*5D
$GQGSV,1,1,01,03,08,043,41,6*5A
$HEROT,-0.0174,A*34
!AIVDM,1,1,,A,13m6@AP000PhhcHQvmDM64Rp0@@b,0*54
$GNHDT,196.395,T*2A
$GNVTG,195.5,T,,M,000.00,N,000.01,K*77
$PTMSG,0,,,,1,1,,*6D
$GNGGA,144128.00,5917.28986560,N,01020.34347080,E,4,30,0.6,18.846,M,39.889,M,000.6,2014*6F
$GNZDA,144128.00,21,11,2023,00,00*72
$PTMSX,0,2,3,1,30,30,2221,454325000,0*6C
!AIVDM,1,1,,A,402M3>h000Htt<tSF0l4Q@1P0t2u,0*06
$HEROT,-0.0174,A*34
$GNHDT,196.395,T*2A
$GNVTG,195.5,T,,M,000.00,N,000.01,K*77
!AIVDM,1,1,,A,13m@FJ?P00PgbLbQr=QN4?vp28A0,0*66
$GNGGA,144128.00,5917.28986560,N,01020.34347080,E,4,30,0.6,18.846,M,39.889,M,000.1,2014*68
$GNGSA,A,3,19,24,12,14,17,23,02,10,15,22,13,,1.27,0.61,1.11,1*09
$GNGSA,A,3,76,66,77,84,67,68,85,,,,,,1.27,0.61,1.11,2*0F
$GNGSA,A,3,27,19,34,04,21,,,,,,,,1.27,0.61,1.11,3*0C
$GNGSA,A,3,10,07,25,23,41,32,40,,,,,,1.27,0.61,1.11,4*06
$GNGSA,A,3,,,,,,,,,,,,,1.27,0.61,1.11,5*07
$GPGSV,4,1,16,02,12,011,42,10,26,304,45,12,25,220,44,13,22,155,42,1*63
$GPGSV,4,2,16,14,20,060,44,15,42,194,46,17,39,078,46,19,36,114,46,1*62
$GPGSV,4,3,16,21,10,000,39,22,39,065,46,23,22,263,44,24,73,253,50,1*62
$GPGSV,4,4,16,32,05,321,43,36,22,165,42,40,13,131,35,49,23,186,42,1*67
$GPGSV,1,1,01,32,05,321,39,5*5F
$GPGSV,2,1,07,10,26,304,44,12,25,220,41,14,20,060,42,15,42,194,43,6*6A
$GPGSV,2,2,07,17,39,078,43,23,22,263,44,24,73,253,49,6*5D
$GPGSV,1,1,01,41,00,105,,0*55
$GLGSV,3,1,11,66,29,195,50,67,58,265,52,68,28,329,48,75,10,068,43,1*79
$GLGSV,3,2,11,76,68,059,52,77,58,256,43,78,02,250,43,84,15,355,36,1*75
$GLGSV,3,3,11,85,30,055,50,86,13,103,47,,,,49,1*73
$GLGSV,3,1,10,66,29,195,47,67,58,265,48,68,28,329,47,75,10,068,44,3*7F
$GLGSV,3,2,10,76,68,059,50,77,58,256,42,84,15,355,37,85,30,055,46,3*75
$GLGSV,3,3,10,86,13,103,42,,,,48,3*4F
$GAGSV,2,1,07,04,58,269,52,09,19,315,44,15,13,052,44,19,38,174,46,2*75
$GAGSV,2,2,07,21,70,098,52,27,21,060,45,34,14,002,43,2*45
$GAGSV,2,1,08,04,58,269,48,09,19,315,42,15,13,052,40,19,38,174,41,7*71
!AIVDM,1,1,,B,33mqi<00000h19pQwe0dcT`r06;S,0*10
$GAGSV,2,2,08,20,,,34,21,70,098,48,27,21,060,43,34,14,002,40,7*44
$GBGSV,2,1,08,07,26,052,42,10,38,065,43,23,70,237,52,24,02,080,38,1*71
$GBGSV,2,2,08,25,54,090,50,32,42,246,48,40,24,038,44,41,13,195,45,1*7D
$GBGSV,1,1,04,07,26,052,45,10,38,065,47,23,70,237,07,40,24,038,09,B*09
$GBGSV,2,1,06,05,09,128,,20,28,315,,34,24,099,,37,17,256,,0*78
$GBGSV,2,2,06,44,22,041,,60,01,108,,0*7A
$GQGSV,1,1,01,03,08,043,37,1*5C
$GQGSV,1,1,01,03,08,043,41,6*5A
!AIVDM,1,1,,B,13mLSb00120hIm<Qw9tMDbft0L1<,0*17
$HEROT,-0.0030,A*35
!AIVDM,1,1,,A,13m=R@0tAu0hc@NQwcvjg26l0@A?,0*7B
$GNHDT,196.396,T*29
$GNVTG,221.4,T,,M,000.00,N,000.01,K*7A
$PTMSG,0,,,,1,1,,*6D
$GNGGA,144129.00,5917.28986760,N,01020.34346970,E,4,30,0.6,18.850,M,39.889,M,000.6,2014*6C
$GNZDA,144129.00,21,11,2023,00,00*73
!AIVDM,1,1,,B,13m`1@0P1CPh3FFQpgL0cwvr0<0I,0*1D
$PTMSX,0,2,3,1,30,30,2221,454325000,0*6C
$HEROT,-0.0030,A*35
$GNHDT,196.396,T*29
$GNVTG,221.4,T,,M,000.00,N,000.01,K*7A
$GNGGA,144129.00,5917.28986760,N,01020.34346970,E,4,30,0.6,18.850,M,39.889,M,000.1,2014*6B
$GNGSA,A,3,19,24,12,14,17,23,02,10,15,22,13,,1.27,0.61,1.11,1*09
$GNGSA,A,3,76,66,77,84,67,68,85,,,,,,1.27,0.61,1.11,2*0F
$GNGSA,A,3,27,19,34,04,21,,,,,,,,1.27,0.61,1.11,3*0C
$GNGSA,A,3,10,07,25,23,41,32,40,,,,,,1.27,0.61,1.11,4*06
$GNGSA,A,3,,,,,,,,,,,,,1.27,0.61,1.11,5*07
$GPGSV,4,1,16,02,12,011,42,10,26,304,45,12,25,220,44,13,22,155,42,1*63
$GPGSV,4,2,16,14,20,060,44,15,42,194,46,17,39,078,46,19,36,114,45,1*61
$GPGSV,4,3,16,21,10,000,39,22,39,065,46,23,22,263,44,24,73,253,50,1*62
$GPGSV,4,4,16,32,05,321,43,36,22,165,43,40,13,131,35,49,23,186,42,1*66
$GPGSV,1,1,01,32,05,321,38,5*5E
$GPGSV,2,1,07,10,26,304,44,12,25,220,41,14,20,060,42,15,42,194,43,6*6A
$GPGSV,2,2,07,17,39,078,43,23,22,263,44,24,73,253,49,6*5D
$GPGSV,1,1,01,41,00,105,,0*55
$GLGSV,3,1,11,66,29,195,50,67,58,265,52,68,28,329,48,75,10,068,43,1*79
$GLGSV,3,2,11,76,68,059,52,77,58,256,43,78,02,250,43,84,15,355,36,1*75
$GLGSV,3,3,11,85,30,055,50,86,13,103,47,,,,49,1*73
$GLGSV,3,1,10,66,29,195,47,67,58,265,48,68,28,329,47,75,10,068,44,3*7F
$GLGSV,3,2,10,76,68,059,50,77,58,256,42,84,15,355,37,85,30,055,46,3*75
$GLGSV,3,3,10,86,13,103,42,,,,47,3*40
$GAGSV,2,1,07,04,58,269,52,09,19,315,44,15,13,052,45,19,38,174,46,2*74
$GAGSV,2,2,07,21,70,098,52,27,21,060,45,34,14,002,43,2*45
$GAGSV,2,1,08,04,58,269,48,09,19,315,42,15,13,052,40,19,38,174,41,7*71
$GAGSV,2,2,08,20,,,34,21,70,098,48,27,21,060,43,34,14,002,40,7*44
$GBGSV,2,1,08,07,26,052,42,10,38,065,43,23,70,237,52,24,02,080,38,1*71
$GBGSV,2,2,08,25,54,090,50,32,42,246,48,40,24,038,44,41,13,195,45,1*7D
$GBGSV,1,1,04,07,26,052,45,10,38,065,47,23,70,237,08,40,24,038,08,B*07
$GBGSV,2,1,06,05,09,128,,20,28,315,,34,24,099,,37,17,256,,0*78
$GBGSV,2,2,06,44,22,041,,60,01,108,,0*7A
$GQGSV,1,1,01,03,08,043,37,1*5C
$GQGSV,1,1,01,03,08,043,41,6*5A
$HEROT,+0.0482,A*3E
$GNHDT,196.395,T*2A
$GNVTG,238.1,T,,M,000.00,N,000.01,K*77
$PTMSG,0,,,,1,1,,*6D
$GNGGA,144130.00,5917.28986640,N,01020.34346850,E,4,30,0.6,18.846,M,39.889,M,000.6,2014*63
$GNZDA,144130.00,21,11,2023,00,00*7B
$PTMSX,0,2,3,1,30,30,2221,454325000,0*6C
!AIVDM,1,1,,B,402M3>h000Htt<tSF0l4Q@1P0t2u,0*05
$HEROT,+0.0482,A*3E
$GNHDT,196.395,T*2A
$GNVTG,238.1,T,,M,000.00,N,000.01,K*77
$GNGGA,144131.00,5917.28986640,N,01020.34346850,E,4,30,0.6,18.846,M,39.889,M,000.1,2014*65
$GNGSA,A,3,19,24,12,14,17,23,02,10,15,22,13,,1.27,0.61,1.11,1*09
$GNGSA,A,3,76,66,77,84,67,68,85,,,,,,1.27,0.61,1.11,2*0F
$GNGSA,A,3,27,19,34,04,21,,,,,,,,1.27,0.61,1.11,3*0C
$GNGSA,A,3,10,07,25,23,41,32,40,,,,,,1.27,0.61,1.11,4*06
$GNGSA,A,3,,,,,,,,,,,,,1.27,0.61,1.11,5*07
$GPGSV,4,1,16,02,12,011,42,10,26,304,46,12,25,220,44,13,22,155,42,1*60
$GPGSV,4,2,16,14,20,060,44,15,42,194,46,17,39,078,46,19,36,114,45,1*61
$GPGSV,4,3,16,21,10,000,39,22,39,065,46,23,22,263,44,24,73,253,50,1*62
$GPGSV,4,4,16,32,05,321,43,36,22,165,43,40,13,131,35,49,23,186,42,1*66
$GPGSV,1,1,01,32,05,321,39,5*5F
$GPGSV,2,1,07,10,26,304,44,12,25,220,41,14,20,060,42,15,42,194,43,6*6A
$GPGSV,2,2,07,17,39,078,43,23,22,263,44,24,73,253,49,6*5D
$GPGSV,1,1,01,41,00,105,,0*55
$GLGSV,3,1,11,66,29,195,50,67,58,265,52,68,28,329,48,75,10,068,43,1*79
$GLGSV,3,2,11,76,68,059,52,77,58,256,43,78,02,250,43,84,15,355,36,1*75
$GLGSV,3,3,11,85,30,055,49,86,13,103,47,,,,49,1*7B
$GLGSV,3,1,10,66,29,195,47,67,58,265,48,68,28,329,47,75,10,068,44,3*7F
$GLGSV,3,2,10,76,68,059,50,77,58,256,42,84,15,355,37,85,30,055,46,3*75
$GLGSV,3,3,10,86,13,103,42,,,,47,3*40
$GAGSV,2,1,07,04,58,269,52,09,19,315,44,15,13,052,45,19,38,174,46,2*74
$GAGSV,2,2,07,21,70,098,52,27,21,060,45,34,14,002,43,2*45
$GAGSV,2,1,08,04,58,269,48,09,19,315,42,15,13,052,40,19,38,174,41,7*71
$GAGSV,2,2,08,20,,,34,21,70,098,48,27,21,060,43,34,14,002,40,7*44
$GBGSV,2,1,08,07,26,052,42,10,38,065,43,23,70,237,52,24,02,080,38,1*71
$GBGSV,2,2,08,25,54,090,50,32,42,246,48,40,24,038,44,41,13,195,45,1*7D
$GBGSV,1,1,04,07,26,052,45,10,38,065,47,23,70,237,07,40,24,038,08,B*08
$GBGSV,2,1,06,05,09,128,,20,28,315,,34,24,099,,37,17,256,,0*78
$GBGSV,2,2,06,44,22,041,,60,01,108,,0*7A
$GQGSV,1,1,01,03,08,043,37,1*5C
$GQGSV,1,1,01,03,08,043,41,6*5A
$HEROT,+0.0263,A*37
$GNHDT,196.396,T*29
$GNVTG,229.3,T,,M,000.00,N,000.01,K*75
$PTMSG,0,,,,1,1,,*6D
$GNGGA,144131.00,5917.28986430,N,01020.34346830,E,4,30,0.6,18.838,M,39.889,M,000.6,2014*68
$GNZDA,144131.00,21,11,2023,00,00*7A
$PTMSX,0,2,3,1,30,30,2221,454325000,0*6C
!AIVDM,1,1,,B,13mJIi0P00Pi9PTQqku>4?vv2L0i,0*68
$HEROT,+0.0263,A*37
$GNHDT,196.396,T*29
$GNVTG,229.3,T,,M,000.00,N,000.01,K*75
$GNGGA,144131.00,5917.28986430,N,01020.34346830,E,4,30,0.6,18.838,M,39.889,M,000.1,2014*6F
$GNGSA,A,3,19,24,12,14,17,23,02,10,15,22,13,,1.27,0.61,1.11,1*09
$GNGSA,A,3,76,66,77,84,67,68,85,,,,,,1.27,0.61,1.11,2*0F
$GNGSA,A,3,27,19,34,04,21,,,,,,,,1.27,0.61,1.11,3*0C
$GNGSA,A,3,10,07,25,23,41,32,40,,,,,,1.27,0.61,1.11,4*06
$GNGSA,A,3,,,,,,,,,,,,,1.27,0.61,1.11,5*07
$GPGSV,4,1,16,02,12,011,42,10,26,304,45,12,25,220,44,13,22,155,42,1*63
$GPGSV,4,2,16,14,20,060,44,15,42,194,46,17,39,078,46,19,36,114,45,1*61
$GPGSV,4,3,16,21,10,000,38,22,39,065,46,23,22,263,44,24,73,253,50,1*63
$GPGSV,4,4,16,32,05,321,43,36,22,165,42,40,13,131,35,49,23,186,42,1*67
$GPGSV,1,1,01,32,05,321,39,5*5F
$GPGSV,2,1,07,10,26,304,44,12,25,220,41,14,20,060,42,15,42,194,43,6*6A
$GPGSV,2,2,07,17,39,078,43,23,22,263,44,24,73,253,49,6*5D
$GPGSV,1,1,01,41,00,105,,0*55
$GLGSV,3,1,11,66,29,195,50,67,58,265,52,68,28,329,49,75,10,068,43,1*78
$GLGSV,3,2,11,76,68,059,52,77,58,256,43,78,02,250,43,84,15,355,35,1*76
$GLGSV,3,3,11,85,30,055,50,86,13,103,47,,,,49,1*73
$GLGSV,3,1,10,66,29,195,47,67,58,265,48,68,28,329,47,75,10,068,44,3*7F
$GLGSV,3,2,10,76,68,059,50,77,58,256,42,84,15,355,37,85,30,055,46,3*75
$GLGSV,3,3,10,86,13,103,42,,,,47,3*40
$GAGSV,2,1,07,04,58,269,52,09,19,315,45,15,14,052,45,19,38,174,46,2*72
$GAGSV,2,2,07,21,70,098,52,27,21,060,45,34,14,002,43,2*45
$GAGSV,2,1,08,04,58,269,48,09,19,315,42,15,14,052,40,19,38,174,41,7*76
$GAGSV,2,2,08,20,,,33,21,70,098,48,27,21,060,43,34,14,002,40,7*43
$GBGSV,2,1,08,07,26,052,42,10,38,065,43,23,70,237,52,24,02,080,38,1*71
$GBGSV,2,2,08,25,54,090,50,32,42,246,48,40,24,038,44,41,13,195,45,1*7D
$GBGSV,1,1,04,07,26,052,45,10,38,065,47,23,70,237,07,40,24,038,08,B*08
$GBGSV,2,1,06,05,09,128,,20,28,315,,34,24,099,,37,17,256,,0*78
$GBGSV,2,2,06,44,22,041,,60,01,108,,0*7A
$GQGSV,1,1,01,03,08,043,37,1*5C
$GQGSV,1,1,01,03,08,043,42,6*59
$HEROT,+0.0610,A*37
$GNHDT,196.397,T*28
$GNVTG,247.8,T,,M,000.00,N,000.01,K*76
$PTMSG,0,,,,1,1,,*6D
$GNGGA,144132.00,5917.28986440,N,01020.34346880,E,4,30,0.6,18.834,M,39.889,M,000.6,2014*6B
$GNZDA,144132.00,21,11,2023,00,00*79
$PTMSX,0,2,3,1,30,30,2221,454325000,0*6C
!AIVDM,1,1,,A,402M3>h000Htt<tSF0l4Q@1P0t2u,0*06
$HEROT,+0.0610,A*37
$GNHDT,196.397,T*28
$GNVTG,247.8,T,,M,000.00,N,000.01,K*76
$GNGGA,144133.00,5917.28986440,N,01020.34346880,E,4,30,0.6,18.834,M,39.889,M,000.1,2014*6D
$GNGSA,A,3,19,24,12,14,17,23,02,10,15,22,13,,1.27,0.61,1.11,1*09
$GNGSA,A,3,76,66,77,84,67,68,85,,,,,,1.27,0.61,1.11,2*0F
$GNGSA,A,3,27,19,34,04,21,,,,,,,,1.27,0.61,1.11,3*0C
$GNGSA,A,3,10,07,25,23,41,32,40,,,,,,1.27,0.61,1.11,4*06
$GNGSA,A,3,,,,,,,,,,,,,1.27,0.61,1.11,5*07
$GPGSV,4,1,16,02,12,011,42,10,26,304,45,12,25,220,44,13,22,155,42,1*63
$GPGSV,4,2,16,14,20,060,44,15,42,194,46,17,39,078,46,19,36,114,45,1*61
$GPGSV,4,3,16,21,10,000,39,22,39,065,46,23,22,263,44,24,73,253,50,1*62
$GPGSV,4,4,16,32,05,321,43,36,22,165,42,40,13,131,35,49,23,186,42,1*67
$GPGSV,1,1,01,32,05,321,39,5*5F
$GPGSV,2,1,07,10,26,304,44,12,25,220,41,14,20,060,42,15,42,194,43,6*6A
$GPGSV,2,2,07,17,39,078,43,23,22,263,44,24,73,253,49,6*5D
$GPGSV,1,1,01,41,00,105,,0*55
$GLGSV,3,1,11,66,29,195,50,67,58,265,52,68,28,329,48,75,10,068,44,1*7E
$GLGSV,3,2,11,76,68,059,52,77,58,256,43,78,02,250,43,84,15,355,36,1*75
$GLGSV,3,3,11,85,30,055,49,86,13,103,47,,,,49,1*7B
$GLGSV,3,1,10,66,29,195,47,67,58,265,49,68,28,329,47,75,10,068,44,3*7E
$GLGSV,3,2,10,76,68,059,50,77,58,256,42,84,15,355,37,85,30,055,46,3*75
$GLGSV,3,3,10,86,13,103,42,,,,47,3*40
$GAGSV,2,1,07,04,58,269,52,09,19,315,44,15,14,052,45,19,37,174,46,2*7C
$GAGSV,2,2,07,21,70,098,52,27,21,060,45,34,14,002,43,2*45
$GAGSV,2,1,08,04,58,269,48,09,19,315,42,15,14,052,40,19,37,174,41,7*79
$GAGSV,2,2,08,20,,,33,21,70,098,48,27,21,060,43,34,14,002,40,7*43
$GBGSV,2,1,08,07,26,052,42,10,38,065,43,23,70,237,52,24,02,080,38,1*71
$GBGSV,2,2,08,25,54,090,50,32,42,246,48,40,24,038,44,41,13,195,45,1*7D
$GBGSV,1,1,03,07,26,052,45,10,38,065,47,23,70,237,07,B*3E
$GBGSV,2,1,06,05,09,128,,20,28,315,,34,24,099,,37,17,256,,0*78
$GBGSV,2,2,06,44,22,041,,60,01,108,,0*7A
$GQGSV,1,1,01,03,08,043,37,1*5C
$GQGSV,1,1,01,03,08,043,41,6*5A
$HEROT,-0.0043,A*31
!AIVDM,1,1,,B,13oHa4001r0hAVfQwEdDH3Lr05jT,0*02
$GNHDT,196.396,T*29
$GNVTG,221.2,T,,M,000.00,N,000.01,K*7C
$PTMSG,0,,,,1,1,,*6D
$GNGGA,144133.00,5917.28986500,N,01020.34346950,E,4,30,0.6,18.839,M,39.889,M,000.6,2014*6E
$GNZDA,144133.00,21,11,2023,00,00*78
!AIVDM,1,1,,B,13mLaQ30000hHSFR4W=LP0e40<1>,0*42
$PTMSX,0,2,3,1,30,30,2221,454325000,0*6C
$HEROT,-0.0043,A*31
$GNHDT,196.396,T*29
$GNVTG,221.2,T,,M,000.00,N,000.01,K*7C
$GNGGA,144133.00,5917.28986500,N,01020.34346950,E,4,30,0.6,18.839,M,39.889,M,000.1,2014*69
$GNGSA,A,3,19,24,12,14,17,23,02,10,15,22,13,,1.27,0.61,1.11,1*09
$GNGSA,A,3,76,66,77,84,67,68,85,,,,,,1.27,0.61,1.11,2*0F
$GNGSA,A,3,27,19,34,04,21,,,,,,,,1.27,0.61,1.11,3*0C
$GNGSA,A,3,10,07,25,23,41,32,40,,,,,,1.27,0.61,1.11,4*06
$GNGSA,A,3,,,,,,,,,,,,,1.27,0.61,1.11,5*07
$GPGSV,4,1,16,02,12,011,42,10,26,304,45,12,25,220,44,13,22,155,42,1*63
$GPGSV,4,2,16,14,20,060,44,15,42,194,46,17,39,078,46,19,36,114,45,1*61
$GPGSV,4,3,16,21,10,000,39,22,39,065,46,23,22,263,44,24,73,253,50,1*62
$GPGSV,4,4,16,32,05,321,43,36,22,165,42,40,13,131,35,49,23,186,42,1*67
$GPGSV,1,1,01,32,05,321,39,5*5F
$GPGSV,2,1,07,10,26,304,43,12,25,220,41,14,20,060,42,15,42,194,43,6*6D
$GPGSV,2,2,07,17,39,078,43,23,22,263,44,24,73,253,49,6*5D
$GPGSV,1,1,01,41,00,105,,0*55
$GLGSV,3,1,11,66,29,195,50,67,58,265,52,68,28,329,48,75,10,068,44,1*7E
$GLGSV,3,2,11,76,68,059,52,77,58,256,43,78,02,250,43,84,15,355,36,1*75
$GLGSV,3,3,11,85,30,055,49,86,13,103,47,,,,49,1*7B
$GLGSV,3,1,10,66,29,195,47,67,58,265,49,68,28,329,47,75,10,068,44,3*7E
$GLGSV,3,2,10,76,68,059,50,77,58,256,42,84,15,355,37,85,30,055,46,3*75
$GLGSV,3,3,10,86,13,103,42,,,,47,3*40
$GAGSV,2,1,07,04,58,269,52,09,19,315,44,15,14,052,45,19,37,174,46,2*7C
$GAGSV,2,2,07,21,70,097,52,27,21,060,45,34,14,002,43,2*4A
$GAGSV,2,1,08,04,58,269,48,09,19,315,42,15,14,052,40,19,37,174,41,7*79
$GAGSV,2,2,08,20,,,34,21,70,097,48,27,21,060,43,34,14,002,39,7*45
$GBGSV,2,1,08,07,26,052,42,10,38,065,43,23,70,237,52,24,02,080,38,1*71
$GBGSV,2,2,08,25,54,090,50,32,42,246,48,40,24,038,44,41,13,195,45,1*7D
$GBGSV,1,1,03,07,26,052,45,10,38,065,47,23,70,237,07,B*3E
$GBGSV,2,1,06,05,09,128,,20,28,315,,34,24,099,,37,17,256,,0*78
$GBGSV,2,2,06,44,22,041,,60,01,108,,0*7A
$GQGSV,1,1,01,03,08,043,37,1*5C
$GQGSV,1,1,01,03,08,043,41,6*5A
$HEROT,+0.0090,A*39
$GNHDT,196.395,T*2A
$GNVTG,201.7,T,,M,000.00,N,000.01,K*7B
$PTMSG,0,,,,1,1,,*6D
$GNGGA,144134.00,5917.28986550,N,01020.34346980,E,4,30,0.6,18.850,M,39.889,M,000.6,2014*6E
$GNZDA,144134.00,21,11,2023,00,00*7F
!AIVDM,1,1,,A,13n;pu;P00Pi9IpQqk<>4?w42D0n,0*0F
$PTMSX,0,2,3,1,30,30,2221,454325000,0*6C
!AIVDM,1,1,,B,402M3>h000Htt<tSF0l4Q@1P0t2u,0*05
$HEROT,+0.0090,A*39
$GNHDT,196.395,T*2A
$GNVTG,201.7,T,,M,000.00,N,000.01,K*7B
$GNGGA,144134.00,5917.28986550,N,01020.34346980,E,4,30,0.6,18.850,M,39.889,M,000.1,2014*69
$GNGSA,A,3,19,24,12,14,17,23,02,10,15,22,13,,1.27,0.61,1.11,1*09
$GNGSA,A,3,76,66,77,84,67,68,85,,,,,,1.27,0.61,1.11,2*0F
$GNGSA,A,3,27,19,34,04,21,,,,,,,,1.27,0.61,1.11,3*0C
$GNGSA,A,3,10,07,25,23,41,32,40,,,,,,1.27,0.61,1.11,4*06
$GNGSA,A,3,,,,,,,,,,,,,1.27,0.61,1.11,5*07
$GPGSV,4,1,16,02,12,011,42,10,26,304,45,12,25,220,44,13,22,155,42,1*63
$GPGSV,4,2,16,14,20,060,44,15,42,194,46,17,39,078,46,19,36,114,45,1*61
$GPGSV,4,3,16,21,10,000,38,22,39,065,46,23,22,263,44,24,73,253,50,1*63
$GPGSV,4,4,16,32,05,321,42,36,22,165,42,40,13,131,35,49,23,186,42,1*66
$GPGSV,1,1,01,32,05,321,39,5*5F
$GPGSV,2,1,07,10,26,304,44,12,25,220,41,14,20,060,42,15,42,194,43,6*6A
$GPGSV,2,2,07,17,39,078,43,23,22,263,43,24,73,253,49,6*5A
$GPGSV,1,1,01,41,00,105,,0*55
$GLGSV,3,1,11,66,29,195,50,67,58,265,52,68,28,329,48,75,10,068,45,1*7F
$GLGSV,3,2,11,76,68,059,52,77,58,256,43,78,02,250,43,84,15,355,35,1*76
$GLGSV,3,3,11,85,30,055,49,86,13,103,47,,,,49,1*7B
$GLGSV,3,1,10,66,29,195,47,67,58,265,49,68,28,329,47,75,10,068,43,3*79
$GLGSV,3,2,10,76,68,059,50,77,58,256,42,84,15,355,37,85,30,055,46,3*75
$GLGSV,3,3,10,86,13,103,42,,,,47,3*40
$GAGSV,2,1,07,04,58,269,52,09,19,315,44,15,14,052,45,19,37,174,46,2*7C
$GAGSV,2,2,07,21,70,097,52,27,21,060,45,34,14,002,43,2*4A
$GAGSV,2,1,08,04,58,269,48,09,19,315,42,15,14,052,40,19,37,174,41,7*79
$GAGSV,2,2,08,20,,,34,21,70,097,48,27,21,060,43,34,14,002,39,7*45
$GBGSV,2,1,08,07,26,052,42,10,38,065,43,23,70,237,52,24,02,080,38,1*71
$GBGSV,2,2,08,25,54,090,50,32,42,246,48,40,24,038,44,41,13,195,45,1*7D
$GBGSV,1,1,03,07,26,052,45,10,38,065,47,23,70,237,07,B*3E
$GBGSV,2,1,06,05,09,128,,20,28,315,,34,24,099,,37,17,256,,0*78
$GBGSV,2,2,06,44,22,041,,60,01,108,,0*7A
$GQGSV,1,1,01,03,08,043,37,1*5C
$GQGSV,1,1,01,03,08,043,41,6*5A
$HEROT,-0.0295,A*38
$GNHDT,196.390,T*2F
$GNVTG,211.1,T,,M,000.00,N,000.01,K*7C
$PTMSG,0,,,,1,1,,*6D
$GNGGA,144135.00,5917.28986560,N,01020.34347060,E,4,30,0.6,18.852,M,39.889,M,000.6,2014*68
$GNZDA,144135.00,21,11,2023,00,00*7E
$PTMSX,0,2,3,1,30,30,2221,454325000,0*6C
$HEROT,-0.0295,A*38
$GNHDT,196.390,T*2F
$GNVTG,211.1,T,,M,000.00,N,000.01,K*7C
$GNGGA,144135.00,5917.28986560,N,01020.34347060,E,4,30,0.6,18.852,M,39.889,M,000.1,2014*6F
$GNGSA,A,3,19,24,12,14,17,23,02,10,15,22,13,,1.27,0.61,1.11,1*09
$GNGSA,A,3,76,66,77,84,67,68,85,,,,,,1.27,0.61,1.11,2*0F
$GNGSA,A,3,27,19,34,04,21,,,,,,,,1.27,0.61,1.11,3*0C
$GNGSA,A,3,10,07,25,23,41,32,40,,,,,,1.27,0.61,1.11,4*06
$GNGSA,A,3,,,,,,,,,,,,,1.27,0.61,1.11,5*07
$GPGSV,4,1,16,02,12,011,42,10,26,304,45,12,25,220,44,13,22,155,42,1*63
$GPGSV,4,2,16,14,20,060,44,15,42,194,46,17,39,078,46,19,36,114,45,1*61
$GPGSV,4,3,16,21,10,000,39,22,39,065,46,23,22,263,44,24,73,253,50,1*62
$GPGSV,4,4,16,32,05,321,43,36,22,165,42,40,13,131,35,49,23,186,42,1*67
$GPGSV,1,1,01,32,05,321,39,5*5F
$GPGSV,2,1,07,10,26,304,44,12,25,220,41,14,20,060,42,15,42,194,43,6*6A
$GPGSV,2,2,07,17,39,078,43,23,22,263,43,24,73,253,49,6*5A
$GPGSV,1,1,01,41,00,105,,0*55
$GLGSV,3,1,11,66,29,195,50,67,58,265,52,68,28,329,48,75,10,068,45,1*7F
$GLGSV,3,2,11,76,68,059,52,77,58,256,43,78,02,250,43,84,15,355,35,1*76
$GLGSV,3,3,11,85,30,055,49,86,13,103,47,,,,49,1*7B
$GLGSV,3,1,10,66,29,195,47,67,58,265,49,68,28,329,46,75,10,068,43,3*78
$GLGSV,3,2,10,76,68,059,50,77,58,256,42,84,15,355,37,85,30,055,46,3*75
$GLGSV,3,3,10,86,13,103,42,,,,47,3*40
$GAGSV,2,1,07,04,58,269,52,09,19,315,44,15,14,052,45,19,37,174,46,2*7C
$GAGSV,2,2,07,21,70,097,52,27,21,060,45,34,14,002,43,2*4A
$GAGSV,2,1,08,04,58,269,48,09,19,315,42,15,14,052,40,19,37,174,41,7*79
$GAGSV,2,2,08,20,,,34,21,70,097,48,27,21,060,43,34,14,002,39,7*45
$GBGSV,2,1,08,07,26,052,42,10,38,065,43,23,70,237,52,24,02,080,38,1*71
$GBGSV,2,2,08,25,54,090,50,32,42,246,48,40,24,038,45,41,13,195,45,1*7C
$GBGSV,1,1,03,07,26,052,45,10,38,065,47,23,70,237,08,B*31
!AIVDM,1,1,,B,B3m7;d00WP<1W98OhfiNPrj1hL0r,0*74
$GBGSV,2,1,06,05,09,128,,20,28,315,,34,24,099,,37,17,256,,0*78
$GBGSV,2,2,06,44,22,041,,60,01,108,,0*7A
$GQGSV,1,1,01,03,08,043,37,1*5C
$GQGSV,1,1,01,03,08,043,41,6*5A
$HEROT,-0.0033,A*36
$GNHDT,196.393,T*2C
$GNVTG,232.2,T,,M,000.00,N,000.01,K*7E
$PTMSG,0,,,,1,1,,*6D
!AIVDM,1,1,,A,13m9Vi0000Pgeb:Qr:?arP3:0D0`,0*0D
$GNGGA,144136.00,5917.28986540,N,01020.34346910,E,4,30,0.6,18.850,M,39.889,M,000.6,2014*64
$GNZDA,144136.00,21,11,2023,00,00*7D
$PTMSX,0,2,3,1,30,30,2221,454325000,0*6C
!AIVDM,1,1,,A,402M3>h000Htt<tSF0l4Q@1P0t2u,0*06
$HEROT,-0.0033,A*36
$GNHDT,196.393,T*2C
$GNVTG,232.2,T,,M,000.00,N,000.01,K*7E
$GNGGA,144137.00,5917.28986540,N,01020.34346910,E,4,30,0.6,18.850,M,39.889,M,000.1,2014*62
$GNGSA,A,3,19,24,12,14,17,23,02,10,15,22,13,,1.27,0.61,1.11,1*09
$GNGSA,A,3,76,66,77,84,67,68,85,,,,,,1.27,0.61,1.11,2*0F
$GNGSA,A,3,27,19,34,04,21,,,,,,,,1.27,0.61,1.11,3*0C
$GNGSA,A,3,10,07,25,23,41,32,40,,,,,,1.27,0.61,1.11,4*06
$GNGSA,A,3,,,,,,,,,,,,,1.27,0.61,1.11,5*07
$GPGSV,4,1,16,02,12,011,42,10,26,304,45,12,25,220,44,13,22,155,42,1*63
$GPGSV,4,2,16,14,20,060,44,15,42,194,46,17,39,078,46,19,36,114,45,1*61
$GPGSV,4,3,16,21,10,000,39,22,39,065,46,23,22,263,44,24,73,253,50,1*62
$GPGSV,4,4,16,32,05,321,43,36,22,165,42,40,13,131,35,49,23,186,42,1*67
$GPGSV,1,1,01,32,05,321,39,5*5F
$GPGSV,2,1,07,10,26,304,44,12,25,220,41,14,20,060,41,15,42,194,43,6*69
$GPGSV,2,2,07,17,39,078,43,23,22,263,43,24,73,253,49,6*5A
$GPGSV,1,1,01,41,00,105,,0*55
$GLGSV,3,1,11,66,29,195,50,67,58,265,52,68,28,329,48,75,10,068,45,1*7F
$GLGSV,3,2,11,76,68,059,52,77,58,256,43,78,02,250,42,84,15,355,35,1*77
$GLGSV,3,3,11,85,30,055,49,86,13,103,46,,,,49,1*7A
$GLGSV,3,1,10,66,29,195,47,67,58,265,49,68,28,329,46,75,10,068,43,3*78
$GLGSV,3,2,10,76,68,059,50,77,58,256,42,84,15,355,37,85,30,055,46,3*75
$GLGSV,3,3,10,86,13,103,42,,,,47,3*40
$GAGSV,2,1,07,04,58,269,52,09,19,315,44,15,14,052,45,19,37,174,46,2*7C
$GAGSV,2,2,07,21,70,097,52,27,21,060,45,34,14,002,43,2*4A
$GAGSV,2,1,08,04,58,269,48,09,19,315,42,15,14,052,40,19,37,174,41,7*79
$GAGSV,2,2,08,20,,,33,21,70,097,48,27,21,060,43,34,14,002,39,7*42
$GBGSV,2,1,08,07,26,052,42,10,38,065,43,23,70,237,52,24,02,080,38,1*71
$GBGSV,2,2,08,25,54,090,50,32,42,246,48,40,24,038,45,41,13,195,45,1*7C
$GBGSV,1,1,02,07,26,052,45,10,38,065,47,B*08
$GBGSV,2,1,06,05,09,128,,20,28,315,,34,24,099,,37,17,256,,0*78
$GBGSV,2,2,06,44,22,041,,60,01,108,,0*7A
$GQGSV,1,1,01,03,08,043,37,1*5C
$GQGSV,1,1,01,03,08,043,41,6*5A
$HEROT,-0.0041,A*33
$GNHDT,196.393,T*2C
$GNVTG,235.9,T,,M,000.00,N,000.01,K*72
$PTMSG,0,,,,1,1,,*6D
$GNGGA,144137.00,5917.28986490,N,01020.34346920,E,4,30,0.6,18.841,M,39.889,M,000.6,2014*6A
$GNZDA,144137.00,21,11,2023,00,00*7C
$PTMSX,0,2,3,1,30,30,2221,454325000,0*6C
!AIVDM,1,1,,B,13m@FJ?P00PgbLTQr=Q>4?w:25jT,0*2A
$HEROT,-0.0041,A*33
$GNHDT,196.393,T*2C
$GNVTG,235.9,T,,M,000.00,N,000.01,K*72
$GNGGA,144137.00,5917.28986490,N,01020.34346920,E,4,30,0.6,18.841,M,39.889,M,000.1,2014*6D
$GNGSA,A,3,19,24,12,14,17,23,02,10,15,22,13,,1.27,0.61,1.11,1*09
$GNGSA,A,3,76,66,77,84,67,68,85,,,,,,1.27,0.61,1.11,2*0F
$GNGSA,A,3,27,19,34,04,21,,,,,,,,1.27,0.61,1.11,3*0C
$GNGSA,A,3,10,07,25,23,41,32,40,,,,,,1.27,0.61,1.11,4*06
$GNGSA,A,3,,,,,,,,,,,,,1.27,0.61,1.11,5*07
$GPGSV,4,1,16,02,12,011,42,10,26,304,45,12,25,220,44,13,22,155,42,1*63
$GPGSV,4,2,16,14,20,060,45,15,42,194,46,17,39,078,46,19,36,114,45,1*60
